[
  {
    "id": 1,
    "dep": 1,
    "name": "ozan",
    "long": 4.91667,
    "lat": 46.3833
  },
  {
    "id": 2,
    "dep": 1,
    "name": "cormoranche sur saone",
    "long": 4.83333,
    "lat": 46.2333
  },
  {
    "id": 3,
    "dep": 1,
    "name": "plagne",
    "long": 5.73333,
    "lat": 46.1833
  },
  {
    "id": 4,
    "dep": 1,
    "name": "tossiat",
    "long": 5.31667,
    "lat": 46.1333
  },
  {
    "id": 5,
    "dep": 1,
    "name": "pouillat",
    "long": 5.43333,
    "lat": 46.3333
  },
  {
    "id": 6,
    "dep": 1,
    "name": "torcieu",
    "long": 5.4,
    "lat": 45.9167
  },
  {
    "id": 7,
    "dep": 1,
    "name": "replonges",
    "long": 4.88333,
    "lat": 46.3
  },
  {
    "id": 8,
    "dep": 1,
    "name": "corcelles",
    "long": 5.58333,
    "lat": 46.0333
  },
  {
    "id": 9,
    "dep": 1,
    "name": "peron",
    "long": 5.93333,
    "lat": 46.2
  },
  {
    "id": 10,
    "dep": 1,
    "name": "relevant",
    "long": 4.95,
    "lat": 46.0833
  },
  {
    "id": 11,
    "dep": 1,
    "name": "chaveyriat",
    "long": 5.06667,
    "lat": 46.1833
  },
  {
    "id": 12,
    "dep": 1,
    "name": "vaux en bugey",
    "long": 5.35,
    "lat": 45.9167
  },
  {
    "id": 13,
    "dep": 1,
    "name": "maillat",
    "long": 5.55,
    "lat": 46.1333
  },
  {
    "id": 14,
    "dep": 1,
    "name": "faramans",
    "long": 5.11667,
    "lat": 45.9
  },
  {
    "id": 15,
    "dep": 1,
    "name": "beon",
    "long": 5.75,
    "lat": 45.8333
  },
  {
    "id": 16,
    "dep": 1,
    "name": "saint bernard",
    "long": 4.73723,
    "lat": 45.945
  },
  {
    "id": 17,
    "dep": 1,
    "name": "rossillon",
    "long": 5.6,
    "lat": 45.8333
  },
  {
    "id": 18,
    "dep": 1,
    "name": "pont d ain",
    "long": 5.33333,
    "lat": 46.05
  },
  {
    "id": 19,
    "dep": 1,
    "name": "nantua",
    "long": 5.61667,
    "lat": 46.15
  },
  {
    "id": 20,
    "dep": 1,
    "name": "chavannes sur reyssouze",
    "long": 5,
    "lat": 46.4333
  },
  {
    "id": 21,
    "dep": 1,
    "name": "neuville les dames",
    "long": 5,
    "lat": 46.1667
  },
  {
    "id": 22,
    "dep": 1,
    "name": "flaxieu",
    "long": 5.73333,
    "lat": 45.8167
  },
  {
    "id": 23,
    "dep": 1,
    "name": "hotonnes",
    "long": 5.68333,
    "lat": 46
  },
  {
    "id": 24,
    "dep": 1,
    "name": "saint sorlin en bugey",
    "long": 5.36667,
    "lat": 45.8833
  },
  {
    "id": 25,
    "dep": 1,
    "name": "songieu",
    "long": 5.7,
    "lat": 45.9667
  },
  {
    "id": 26,
    "dep": 1,
    "name": "virieu le petit",
    "long": 5.71667,
    "lat": 45.9
  },
  {
    "id": 27,
    "dep": 1,
    "name": "saint denis en bugey",
    "long": 5.33333,
    "lat": 45.95
  },
  {
    "id": 28,
    "dep": 1,
    "name": "charnoz sur ain",
    "long": 5.21667,
    "lat": 45.8667
  },
  {
    "id": 29,
    "dep": 1,
    "name": "chazey sur ain",
    "long": 5.25,
    "lat": 45.9
  },
  {
    "id": 30,
    "dep": 1,
    "name": "marchamp",
    "long": 5.55,
    "lat": 45.7833
  },
  {
    "id": 31,
    "dep": 1,
    "name": "culoz",
    "long": 5.78333,
    "lat": 45.85
  },
  {
    "id": 32,
    "dep": 1,
    "name": "mantenay montlin",
    "long": 5.08333,
    "lat": 46.4167
  },
  {
    "id": 33,
    "dep": 1,
    "name": "marboz",
    "long": 5.25,
    "lat": 46.3333
  },
  {
    "id": 34,
    "dep": 1,
    "name": "foissiat",
    "long": 5.18333,
    "lat": 46.3667
  },
  {
    "id": 35,
    "dep": 1,
    "name": "treffort cuisiat",
    "long": 5.36834,
    "lat": 46.2714
  },
  {
    "id": 36,
    "dep": 1,
    "name": "izieu",
    "long": 5.63333,
    "lat": 45.65
  },
  {
    "id": 37,
    "dep": 1,
    "name": "saint etienne du bois",
    "long": 5.28333,
    "lat": 46.2833
  },
  {
    "id": 38,
    "dep": 1,
    "name": "hauteville lompnes",
    "long": 5.6,
    "lat": 45.9667
  },
  {
    "id": 39,
    "dep": 1,
    "name": "saint trivier sur moignans",
    "long": 4.9,
    "lat": 46.0667
  },
  {
    "id": 40,
    "dep": 1,
    "name": "peyriat",
    "long": 5.51667,
    "lat": 46.15
  },
  {
    "id": 41,
    "dep": 1,
    "name": "evosges",
    "long": 5.5,
    "lat": 45.9583
  },
  {
    "id": 42,
    "dep": 1,
    "name": "poncin",
    "long": 5.4,
    "lat": 46.0833
  },
  {
    "id": 43,
    "dep": 1,
    "name": "crans",
    "long": 5.21667,
    "lat": 45.9667
  },
  {
    "id": 44,
    "dep": 1,
    "name": "montreal la cluse",
    "long": 5.57084,
    "lat": 46.1867
  },
  {
    "id": 45,
    "dep": 1,
    "name": "cleyzieu",
    "long": 5.43333,
    "lat": 45.9
  },
  {
    "id": 46,
    "dep": 1,
    "name": "lompnieu",
    "long": 5.65,
    "lat": 45.9667
  },
  {
    "id": 47,
    "dep": 1,
    "name": "villereversure",
    "long": 5.38333,
    "lat": 46.1833
  },
  {
    "id": 48,
    "dep": 1,
    "name": "saint martin du mont",
    "long": 5.33333,
    "lat": 46.1
  },
  {
    "id": 49,
    "dep": 1,
    "name": "saint genis pouilly",
    "long": 6.01667,
    "lat": 46.25
  },
  {
    "id": 50,
    "dep": 1,
    "name": "bolozon",
    "long": 5.48333,
    "lat": 46.2
  },
  {
    "id": 51,
    "dep": 1,
    "name": "confrancon",
    "long": 5.06667,
    "lat": 46.2667
  },
  {
    "id": 52,
    "dep": 1,
    "name": "lochieu",
    "long": 5.71667,
    "lat": 45.9333
  },
  {
    "id": 53,
    "dep": 1,
    "name": "chanoz chatenay",
    "long": 5.03333,
    "lat": 46.1833
  },
  {
    "id": 54,
    "dep": 1,
    "name": "villebois",
    "long": 5.43333,
    "lat": 45.85
  },
  {
    "id": 55,
    "dep": 1,
    "name": "ceignes",
    "long": 5.5,
    "lat": 46.1167
  },
  {
    "id": 56,
    "dep": 1,
    "name": "saint didier sur chalaronne",
    "long": 4.81667,
    "lat": 46.1667
  },
  {
    "id": 57,
    "dep": 1,
    "name": "revonnas",
    "long": 5.33333,
    "lat": 46.1667
  },
  {
    "id": 58,
    "dep": 1,
    "name": "bourg saint christophe",
    "long": 5.16667,
    "lat": 45.8833
  },
  {
    "id": 59,
    "dep": 1,
    "name": "condeissiat",
    "long": 5.08333,
    "lat": 46.1667
  },
  {
    "id": 60,
    "dep": 1,
    "name": "pirajoux",
    "long": 5.3,
    "lat": 46.3833
  },
  {
    "id": 61,
    "dep": 1,
    "name": "chalamont",
    "long": 5.16667,
    "lat": 46
  },
  {
    "id": 62,
    "dep": 1,
    "name": "le plantay",
    "long": 5.08333,
    "lat": 46.0167
  },
  {
    "id": 63,
    "dep": 1,
    "name": "versailleux",
    "long": 5.1,
    "lat": 45.9833
  },
  {
    "id": 64,
    "dep": 1,
    "name": "montagnat",
    "long": 5.28333,
    "lat": 46.1667
  },
  {
    "id": 65,
    "dep": 1,
    "name": "vieu",
    "long": 5.68333,
    "lat": 45.9
  },
  {
    "id": 66,
    "dep": 1,
    "name": "saint andre de corcy",
    "long": 4.95,
    "lat": 45.9167
  },
  {
    "id": 67,
    "dep": 1,
    "name": "bressolles",
    "long": 5.1,
    "lat": 45.8667
  },
  {
    "id": 68,
    "dep": 1,
    "name": "peronnas",
    "long": 5.2,
    "lat": 46.1833
  },
  {
    "id": 69,
    "dep": 1,
    "name": "colomieu",
    "long": 5.61667,
    "lat": 45.7333
  },
  {
    "id": 70,
    "dep": 1,
    "name": "monthieux",
    "long": 4.93333,
    "lat": 45.95
  },
  {
    "id": 71,
    "dep": 1,
    "name": "saint jean sur reyssouze",
    "long": 5.06667,
    "lat": 46.4
  },
  {
    "id": 72,
    "dep": 1,
    "name": "garnerans",
    "long": 4.83333,
    "lat": 46.2
  },
  {
    "id": 73,
    "dep": 1,
    "name": "montrevel en bresse",
    "long": 5.13333,
    "lat": 46.3333
  },
  {
    "id": 74,
    "dep": 1,
    "name": "conand",
    "long": 5.46667,
    "lat": 45.8833
  },
  {
    "id": 75,
    "dep": 1,
    "name": "challes la montagne",
    "long": 5.46667,
    "lat": 46.1333
  },
  {
    "id": 76,
    "dep": 1,
    "name": "mogneneins",
    "long": 4.81667,
    "lat": 46.1333
  },
  {
    "id": 77,
    "dep": 1,
    "name": "thoissey",
    "long": 4.8,
    "lat": 46.1667
  },
  {
    "id": 78,
    "dep": 1,
    "name": "chaleins",
    "long": 4.8,
    "lat": 46.0333
  },
  {
    "id": 79,
    "dep": 1,
    "name": "neuville sur ain",
    "long": 5.36667,
    "lat": 46.0833
  },
  {
    "id": 80,
    "dep": 1,
    "name": "thil",
    "long": 5.01667,
    "lat": 45.8167
  },
  {
    "id": 81,
    "dep": 1,
    "name": "jujurieux",
    "long": 5.41667,
    "lat": 46.0333
  },
  {
    "id": 82,
    "dep": 1,
    "name": "oncieu",
    "long": 5.46667,
    "lat": 45.95
  },
  {
    "id": 83,
    "dep": 1,
    "name": "lurcy",
    "long": 4.76667,
    "lat": 46.0667
  },
  {
    "id": 84,
    "dep": 1,
    "name": "balan",
    "long": 5.1,
    "lat": 45.8333
  },
  {
    "id": 85,
    "dep": 1,
    "name": "ambutrix",
    "long": 5.33333,
    "lat": 45.9333
  },
  {
    "id": 86,
    "dep": 1,
    "name": "sainte croix",
    "long": 5.05195,
    "lat": 45.8942
  },
  {
    "id": 87,
    "dep": 1,
    "name": "blyes",
    "long": 5.25,
    "lat": 45.85
  },
  {
    "id": 88,
    "dep": 1,
    "name": "conzieu",
    "long": 5.6,
    "lat": 45.7333
  },
  {
    "id": 89,
    "dep": 1,
    "name": "nievroz",
    "long": 5.06667,
    "lat": 45.8333
  },
  {
    "id": 90,
    "dep": 1,
    "name": "nurieux volognat",
    "long": 5.52667,
    "lat": 46.1856
  },
  {
    "id": 91,
    "dep": 1,
    "name": "ambleon",
    "long": 5.6,
    "lat": 45.75
  },
  {
    "id": 92,
    "dep": 1,
    "name": "saint maurice de gourdans",
    "long": 5.2,
    "lat": 45.8167
  },
  {
    "id": 93,
    "dep": 1,
    "name": "chezery forens",
    "long": 5.88333,
    "lat": 46.2167
  },
  {
    "id": 94,
    "dep": 1,
    "name": "sault brenaz",
    "long": 5.41667,
    "lat": 45.85
  },
  {
    "id": 95,
    "dep": 1,
    "name": "murs et gelignieux",
    "long": 5.66667,
    "lat": 45.6333
  },
  {
    "id": 96,
    "dep": 1,
    "name": "le petit abergement",
    "long": 5.65,
    "lat": 46.0333
  },
  {
    "id": 97,
    "dep": 1,
    "name": "cormoz",
    "long": 5.23333,
    "lat": 46.45
  },
  {
    "id": 98,
    "dep": 1,
    "name": "saint martin de bavel",
    "long": 5.68333,
    "lat": 45.85
  },
  {
    "id": 99,
    "dep": 1,
    "name": "saint trivier de courtes",
    "long": 5.08333,
    "lat": 46.4667
  },
  {
    "id": 100,
    "dep": 1,
    "name": "boyeux saint jerome",
    "long": 5.46667,
    "lat": 46.0333
  },
  {
    "id": 101,
    "dep": 1,
    "name": "chateau gaillard",
    "long": 5.3,
    "lat": 45.9667
  },
  {
    "id": 102,
    "dep": 1,
    "name": "premeyzel",
    "long": 5.65,
    "lat": 45.6833
  },
  {
    "id": 103,
    "dep": 1,
    "name": "arandas",
    "long": 5.48333,
    "lat": 45.9
  },
  {
    "id": 104,
    "dep": 1,
    "name": "chatenay",
    "long": 5.2,
    "lat": 46.0333
  },
  {
    "id": 105,
    "dep": 1,
    "name": "innimond",
    "long": 5.56667,
    "lat": 45.7833
  },
  {
    "id": 106,
    "dep": 1,
    "name": "boz",
    "long": 4.9,
    "lat": 46.4
  },
  {
    "id": 107,
    "dep": 1,
    "name": "briord",
    "long": 5.46667,
    "lat": 45.7833
  },
  {
    "id": 108,
    "dep": 1,
    "name": "reyrieux",
    "long": 4.81667,
    "lat": 45.9333
  },
  {
    "id": 109,
    "dep": 1,
    "name": "matafelon granges",
    "long": 5.56667,
    "lat": 46.2667
  },
  {
    "id": 110,
    "dep": 1,
    "name": "drom",
    "long": 5.36667,
    "lat": 46.2167
  },
  {
    "id": 111,
    "dep": 1,
    "name": "chatillon en michaille",
    "long": 5.78333,
    "lat": 46.1333
  },
  {
    "id": 112,
    "dep": 1,
    "name": "polliat",
    "long": 5.13333,
    "lat": 46.25
  },
  {
    "id": 113,
    "dep": 1,
    "name": "vesancy",
    "long": 6.08333,
    "lat": 46.35
  },
  {
    "id": 114,
    "dep": 1,
    "name": "massieux",
    "long": 4.83333,
    "lat": 45.9167
  },
  {
    "id": 115,
    "dep": 1,
    "name": "saint cyr sur menthon",
    "long": 4.98333,
    "lat": 46.2667
  },
  {
    "id": 116,
    "dep": 1,
    "name": "serrieres sur ain",
    "long": 5.45,
    "lat": 46.15
  },
  {
    "id": 117,
    "dep": 1,
    "name": "nivollet montgriffon",
    "long": 5.43333,
    "lat": 45.9833
  },
  {
    "id": 118,
    "dep": 1,
    "name": "izernore",
    "long": 5.55,
    "lat": 46.2167
  },
  {
    "id": 119,
    "dep": 1,
    "name": "saint nizier le desert",
    "long": 5.15,
    "lat": 46.05
  },
  {
    "id": 120,
    "dep": 1,
    "name": "guereins",
    "long": 4.78333,
    "lat": 46.1
  },
  {
    "id": 121,
    "dep": 1,
    "name": "illiat",
    "long": 4.88333,
    "lat": 46.1833
  },
  {
    "id": 122,
    "dep": 1,
    "name": "la trancliere",
    "long": 5.26667,
    "lat": 46.1167
  },
  {
    "id": 123,
    "dep": 1,
    "name": "saint didier de formans",
    "long": 4.78333,
    "lat": 45.95
  },
  {
    "id": 124,
    "dep": 1,
    "name": "merignat",
    "long": 5.43333,
    "lat": 46.0667
  },
  {
    "id": 125,
    "dep": 1,
    "name": "saint eloi",
    "long": 5.15,
    "lat": 45.9333
  },
  {
    "id": 126,
    "dep": 1,
    "name": "la chapelle du chatelard",
    "long": 5.03333,
    "lat": 46.0667
  },
  {
    "id": 127,
    "dep": 1,
    "name": "saint jean de niost",
    "long": 5.21667,
    "lat": 45.8333
  },
  {
    "id": 128,
    "dep": 1,
    "name": "savigneux",
    "long": 4.85,
    "lat": 46
  },
  {
    "id": 129,
    "dep": 1,
    "name": "nattages",
    "long": 5.76667,
    "lat": 45.7333
  },
  {
    "id": 130,
    "dep": 1,
    "name": "saint benoit",
    "long": 5.58333,
    "lat": 45.7
  },
  {
    "id": 131,
    "dep": 1,
    "name": "douvres",
    "long": 5.36667,
    "lat": 45.9833
  },
  {
    "id": 132,
    "dep": 1,
    "name": "francheleins",
    "long": 4.8,
    "lat": 46.0667
  },
  {
    "id": 133,
    "dep": 1,
    "name": "dortan",
    "long": 5.66667,
    "lat": 46.3167
  },
  {
    "id": 134,
    "dep": 1,
    "name": "saint germain les paroisses",
    "long": 5.61667,
    "lat": 45.7667
  },
  {
    "id": 135,
    "dep": 1,
    "name": "miribel",
    "long": 4.95306,
    "lat": 45.8245
  },
  {
    "id": 136,
    "dep": 1,
    "name": "lancrans",
    "long": 5.83333,
    "lat": 46.1333
  },
  {
    "id": 137,
    "dep": 1,
    "name": "echenevex",
    "long": 6.03333,
    "lat": 46.3167
  },
  {
    "id": 138,
    "dep": 1,
    "name": "saint jean sur veyle",
    "long": 4.91667,
    "lat": 46.25
  },
  {
    "id": 139,
    "dep": 1,
    "name": "billiat",
    "long": 5.78333,
    "lat": 46.0667
  },
  {
    "id": 140,
    "dep": 1,
    "name": "l abergement de varey",
    "long": 5.41667,
    "lat": 46
  },
  {
    "id": 141,
    "dep": 1,
    "name": "villeneuve",
    "long": 4.83667,
    "lat": 46.0212
  },
  {
    "id": 142,
    "dep": 1,
    "name": "villars les dombes",
    "long": 5.01667,
    "lat": 46
  },
  {
    "id": 143,
    "dep": 1,
    "name": "thezillieu",
    "long": 5.6,
    "lat": 45.8833
  },
  {
    "id": 144,
    "dep": 1,
    "name": "saint etienne sur reyssouze",
    "long": 5,
    "lat": 46.4
  },
  {
    "id": 145,
    "dep": 1,
    "name": "souclin",
    "long": 5.41667,
    "lat": 45.8667
  },
  {
    "id": 146,
    "dep": 1,
    "name": "saint just",
    "long": 5.28,
    "lat": 46.1903
  },
  {
    "id": 147,
    "dep": 1,
    "name": "civrieux",
    "long": 4.88333,
    "lat": 45.9167
  },
  {
    "id": 148,
    "dep": 1,
    "name": "argis",
    "long": 5.48333,
    "lat": 45.9333
  },
  {
    "id": 149,
    "dep": 1,
    "name": "talissieu",
    "long": 5.71667,
    "lat": 45.8667
  },
  {
    "id": 150,
    "dep": 1,
    "name": "birieux",
    "long": 5.03333,
    "lat": 45.95
  },
  {
    "id": 151,
    "dep": 1,
    "name": "saint julien sur veyle",
    "long": 4.95,
    "lat": 46.2
  },
  {
    "id": 152,
    "dep": 1,
    "name": "thoiry",
    "long": 5.97973,
    "lat": 46.2364
  },
  {
    "id": 153,
    "dep": 1,
    "name": "laiz",
    "long": 4.88333,
    "lat": 46.25
  },
  {
    "id": 154,
    "dep": 1,
    "name": "cressin rochefort",
    "long": 5.76667,
    "lat": 45.7667
  },
  {
    "id": 155,
    "dep": 1,
    "name": "saint champ",
    "long": 5.73333,
    "lat": 45.7833
  },
  {
    "id": 156,
    "dep": 1,
    "name": "saint georges sur renon",
    "long": 5.03333,
    "lat": 46.1
  },
  {
    "id": 157,
    "dep": 1,
    "name": "lantenay",
    "long": 5.53333,
    "lat": 46.05
  },
  {
    "id": 158,
    "dep": 1,
    "name": "vernoux",
    "long": 5.11667,
    "lat": 46.4833
  },
  {
    "id": 159,
    "dep": 1,
    "name": "cormaranche en bugey",
    "long": 5.6,
    "lat": 45.95
  },
  {
    "id": 160,
    "dep": 1,
    "name": "sainte euphemie",
    "long": 4.78333,
    "lat": 45.9667
  },
  {
    "id": 161,
    "dep": 1,
    "name": "beaupont",
    "long": 5.26667,
    "lat": 46.4
  },
  {
    "id": 162,
    "dep": 1,
    "name": "brens",
    "long": 5.69473,
    "lat": 45.7187
  },
  {
    "id": 163,
    "dep": 1,
    "name": "ramasse",
    "long": 5.35,
    "lat": 46.2
  },
  {
    "id": 164,
    "dep": 1,
    "name": "divonne les bains",
    "long": 6.13333,
    "lat": 46.3667
  },
  {
    "id": 165,
    "dep": 1,
    "name": "leaz",
    "long": 5.88333,
    "lat": 46.1
  },
  {
    "id": 166,
    "dep": 1,
    "name": "villes",
    "long": 5.78333,
    "lat": 46.0833
  },
  {
    "id": 167,
    "dep": 1,
    "name": "saint julien sur reyssouze",
    "long": 5.11667,
    "lat": 46.4
  },
  {
    "id": 168,
    "dep": 1,
    "name": "groslee",
    "long": 5.56667,
    "lat": 45.7167
  },
  {
    "id": 169,
    "dep": 1,
    "name": "vandeins",
    "long": 5.08333,
    "lat": 46.2167
  },
  {
    "id": 170,
    "dep": 1,
    "name": "verjon",
    "long": 5.35,
    "lat": 46.35
  },
  {
    "id": 171,
    "dep": 1,
    "name": "saint andre sur vieux jonc",
    "long": 5.06667,
    "lat": 46.15
  },
  {
    "id": 172,
    "dep": 1,
    "name": "saint andre d huiriat",
    "long": 4.91667,
    "lat": 46.2167
  },
  {
    "id": 173,
    "dep": 1,
    "name": "grilly",
    "long": 6.11667,
    "lat": 46.3333
  },
  {
    "id": 174,
    "dep": 1,
    "name": "cessy",
    "long": 6.06667,
    "lat": 46.3167
  },
  {
    "id": 175,
    "dep": 1,
    "name": "ordonnaz",
    "long": 5.53333,
    "lat": 45.8333
  },
  {
    "id": 176,
    "dep": 1,
    "name": "vescours",
    "long": 5.03333,
    "lat": 46.4667
  },
  {
    "id": 177,
    "dep": 1,
    "name": "meillonnas",
    "long": 5.35,
    "lat": 46.25
  },
  {
    "id": 178,
    "dep": 1,
    "name": "geovreisset",
    "long": 5.6,
    "lat": 46.25
  },
  {
    "id": 179,
    "dep": 1,
    "name": "ceyzerieu",
    "long": 5.73333,
    "lat": 45.8333
  },
  {
    "id": 180,
    "dep": 1,
    "name": "beard geovreissiat",
    "long": 5.56667,
    "lat": 46.2
  },
  {
    "id": 181,
    "dep": 1,
    "name": "la burbanche",
    "long": 5.56667,
    "lat": 45.85
  },
  {
    "id": 182,
    "dep": 1,
    "name": "perrex",
    "long": 4.98333,
    "lat": 46.2333
  },
  {
    "id": 183,
    "dep": 1,
    "name": "villemotier",
    "long": 5.31667,
    "lat": 46.35
  },
  {
    "id": 184,
    "dep": 1,
    "name": "jasseron",
    "long": 5.33333,
    "lat": 46.2167
  },
  {
    "id": 185,
    "dep": 1,
    "name": "corveissiat",
    "long": 5.48333,
    "lat": 46.2333
  },
  {
    "id": 186,
    "dep": 1,
    "name": "journans",
    "long": 5.33333,
    "lat": 46.15
  },
  {
    "id": 187,
    "dep": 1,
    "name": "sermoyer",
    "long": 4.98333,
    "lat": 46.5
  },
  {
    "id": 188,
    "dep": 1,
    "name": "charix",
    "long": 5.68333,
    "lat": 46.1833
  },
  {
    "id": 189,
    "dep": 1,
    "name": "arbignieu",
    "long": 5.65,
    "lat": 45.7333
  },
  {
    "id": 190,
    "dep": 1,
    "name": "leyssard",
    "long": 5.46667,
    "lat": 46.1667
  },
  {
    "id": 191,
    "dep": 1,
    "name": "saint jean de thurigneux",
    "long": 4.88333,
    "lat": 45.95
  },
  {
    "id": 192,
    "dep": 1,
    "name": "frans",
    "long": 4.78333,
    "lat": 45.9833
  },
  {
    "id": 193,
    "dep": 1,
    "name": "tenay",
    "long": 5.5,
    "lat": 45.9167
  },
  {
    "id": 194,
    "dep": 1,
    "name": "bage la ville",
    "long": 4.95,
    "lat": 46.3167
  },
  {
    "id": 195,
    "dep": 1,
    "name": "montmerle sur saone",
    "long": 4.76667,
    "lat": 46.0833
  },
  {
    "id": 196,
    "dep": 1,
    "name": "courmangoux",
    "long": 5.36667,
    "lat": 46.3333
  },
  {
    "id": 197,
    "dep": 1,
    "name": "baneins",
    "long": 4.9,
    "lat": 46.1167
  },
  {
    "id": 198,
    "dep": 1,
    "name": "lagnieu",
    "long": 5.35,
    "lat": 45.9
  },
  {
    "id": 199,
    "dep": 1,
    "name": "attignat",
    "long": 5.16667,
    "lat": 46.2833
  },
  {
    "id": 200,
    "dep": 1,
    "name": "saint andre de bage",
    "long": 4.91667,
    "lat": 46.3
  },
  {
    "id": 201,
    "dep": 1,
    "name": "pont de vaux",
    "long": 4.93333,
    "lat": 46.4333
  },
  {
    "id": 202,
    "dep": 1,
    "name": "amberieu en bugey",
    "long": 5.35,
    "lat": 45.95
  },
  {
    "id": 203,
    "dep": 1,
    "name": "peyzieux sur saone",
    "long": 4.81667,
    "lat": 46.1167
  },
  {
    "id": 204,
    "dep": 1,
    "name": "crozet",
    "long": 6.01251,
    "lat": 46.2806
  },
  {
    "id": 205,
    "dep": 1,
    "name": "seyssel",
    "long": 5.83194,
    "lat": 45.9597
  },
  {
    "id": 206,
    "dep": 1,
    "name": "beynost",
    "long": 5,
    "lat": 45.8333
  },
  {
    "id": 207,
    "dep": 1,
    "name": "versonnex",
    "long": 6.09723,
    "lat": 46.3023
  },
  {
    "id": 208,
    "dep": 1,
    "name": "saint laurent sur saone",
    "long": 4.83333,
    "lat": 46.3
  },
  {
    "id": 209,
    "dep": 1,
    "name": "artemare",
    "long": 5.7,
    "lat": 45.8667
  },
  {
    "id": 210,
    "dep": 1,
    "name": "montracol",
    "long": 5.11667,
    "lat": 46.1833
  },
  {
    "id": 211,
    "dep": 1,
    "name": "parves",
    "long": 5.75,
    "lat": 45.75
  },
  {
    "id": 212,
    "dep": 1,
    "name": "pugieu",
    "long": 5.65,
    "lat": 45.8167
  },
  {
    "id": 213,
    "dep": 1,
    "name": "virieu le grand",
    "long": 5.65,
    "lat": 45.85
  },
  {
    "id": 214,
    "dep": 1,
    "name": "saint remy",
    "long": 5.16667,
    "lat": 46.1833
  },
  {
    "id": 215,
    "dep": 1,
    "name": "rance",
    "long": 4.86667,
    "lat": 45.9667
  },
  {
    "id": 216,
    "dep": 1,
    "name": "grieges",
    "long": 4.85,
    "lat": 46.25
  },
  {
    "id": 217,
    "dep": 1,
    "name": "grand corent",
    "long": 5.43333,
    "lat": 46.2
  },
  {
    "id": 218,
    "dep": 1,
    "name": "outriaz",
    "long": 5.55,
    "lat": 46.0667
  },
  {
    "id": 219,
    "dep": 1,
    "name": "montagnieu",
    "long": 5.46667,
    "lat": 45.8
  },
  {
    "id": 220,
    "dep": 1,
    "name": "champagne en valromey",
    "long": 5.68333,
    "lat": 45.9
  },
  {
    "id": 221,
    "dep": 1,
    "name": "amberieux en dombes",
    "long": 4.9,
    "lat": 46
  },
  {
    "id": 222,
    "dep": 1,
    "name": "la boisse",
    "long": 5.03333,
    "lat": 45.85
  },
  {
    "id": 223,
    "dep": 1,
    "name": "parcieux",
    "long": 4.81667,
    "lat": 45.9167
  },
  {
    "id": 224,
    "dep": 1,
    "name": "saint didier d aussiat",
    "long": 5.06667,
    "lat": 46.3
  },
  {
    "id": 225,
    "dep": 1,
    "name": "saint nizier le bouchoux",
    "long": 5.15,
    "lat": 46.45
  },
  {
    "id": 226,
    "dep": 1,
    "name": "ars sur formans",
    "long": 4.81667,
    "lat": 45.9833
  },
  {
    "id": 227,
    "dep": 1,
    "name": "anglefort",
    "long": 5.80833,
    "lat": 45.9167
  },
  {
    "id": 228,
    "dep": 1,
    "name": "corlier",
    "long": 5.5,
    "lat": 46.0333
  },
  {
    "id": 229,
    "dep": 1,
    "name": "ferney voltaire",
    "long": 6.11667,
    "lat": 46.25
  },
  {
    "id": 230,
    "dep": 1,
    "name": "saint maurice de remens",
    "long": 5.28333,
    "lat": 45.95
  },
  {
    "id": 231,
    "dep": 1,
    "name": "chatillon la palud",
    "long": 5.25,
    "lat": 45.9667
  },
  {
    "id": 232,
    "dep": 1,
    "name": "saint sulpice",
    "long": 5.04167,
    "lat": 46.3203
  },
  {
    "id": 233,
    "dep": 1,
    "name": "saint bois",
    "long": 5.63333,
    "lat": 45.7
  },
  {
    "id": 234,
    "dep": 1,
    "name": "virignin",
    "long": 5.71667,
    "lat": 45.7167
  },
  {
    "id": 235,
    "dep": 1,
    "name": "premillieu",
    "long": 5.56667,
    "lat": 45.8667
  },
  {
    "id": 236,
    "dep": 1,
    "name": "genouilleux",
    "long": 4.78333,
    "lat": 46.1167
  },
  {
    "id": 237,
    "dep": 1,
    "name": "reyssouze",
    "long": 4.91667,
    "lat": 46.4333
  },
  {
    "id": 238,
    "dep": 1,
    "name": "collonges",
    "long": 5.9,
    "lat": 46.1333
  },
  {
    "id": 239,
    "dep": 1,
    "name": "saint germain de joux",
    "long": 5.73333,
    "lat": 46.1833
  },
  {
    "id": 240,
    "dep": 1,
    "name": "bregnier cordon",
    "long": 5.61667,
    "lat": 45.65
  },
  {
    "id": 241,
    "dep": 1,
    "name": "saint martin le chatel",
    "long": 5.11667,
    "lat": 46.2833
  },
  {
    "id": 242,
    "dep": 1,
    "name": "marignieu",
    "long": 5.71667,
    "lat": 45.8
  },
  {
    "id": 243,
    "dep": 1,
    "name": "les neyrolles",
    "long": 5.63333,
    "lat": 46.1333
  },
  {
    "id": 244,
    "dep": 1,
    "name": "sulignat",
    "long": 4.96667,
    "lat": 46.1667
  },
  {
    "id": 245,
    "dep": 1,
    "name": "beny",
    "long": 5.28333,
    "lat": 46.3333
  },
  {
    "id": 246,
    "dep": 1,
    "name": "injoux genissiat",
    "long": 5.78333,
    "lat": 46.05
  },
  {
    "id": 247,
    "dep": 1,
    "name": "chanay",
    "long": 5.78333,
    "lat": 46
  },
  {
    "id": 248,
    "dep": 1,
    "name": "chatillon sur chalaronne",
    "long": 4.96667,
    "lat": 46.1167
  },
  {
    "id": 249,
    "dep": 1,
    "name": "farges",
    "long": 5.91667,
    "lat": 46.1667
  },
  {
    "id": 250,
    "dep": 1,
    "name": "saint alban",
    "long": 5.45,
    "lat": 46.1
  },
  {
    "id": 251,
    "dep": 1,
    "name": "curtafond",
    "long": 5.08333,
    "lat": 46.2667
  },
  {
    "id": 252,
    "dep": 1,
    "name": "viriat",
    "long": 5.21667,
    "lat": 46.25
  },
  {
    "id": 253,
    "dep": 1,
    "name": "belleydoux",
    "long": 5.76667,
    "lat": 46.25
  },
  {
    "id": 254,
    "dep": 1,
    "name": "bage le chatel",
    "long": 4.93333,
    "lat": 46.3
  },
  {
    "id": 255,
    "dep": 1,
    "name": "sainte olive",
    "long": 4.93333,
    "lat": 46.0167
  },
  {
    "id": 256,
    "dep": 1,
    "name": "saint genis sur menthon",
    "long": 5.01667,
    "lat": 46.2833
  },
  {
    "id": 257,
    "dep": 1,
    "name": "domsure",
    "long": 5.3,
    "lat": 46.4167
  },
  {
    "id": 258,
    "dep": 1,
    "name": "chavannes sur suran",
    "long": 5.41667,
    "lat": 46.2667
  },
  {
    "id": 259,
    "dep": 1,
    "name": "priay",
    "long": 5.28333,
    "lat": 46
  },
  {
    "id": 260,
    "dep": 1,
    "name": "peyrieu",
    "long": 5.67751,
    "lat": 45.6767
  },
  {
    "id": 261,
    "dep": 1,
    "name": "lalleyriat",
    "long": 5.71667,
    "lat": 46.15
  },
  {
    "id": 262,
    "dep": 1,
    "name": "sergy",
    "long": 6,
    "lat": 46.25
  },
  {
    "id": 263,
    "dep": 1,
    "name": "saint martin du frene",
    "long": 5.55,
    "lat": 46.1333
  },
  {
    "id": 264,
    "dep": 1,
    "name": "saint maurice de beynost",
    "long": 4.96667,
    "lat": 45.8333
  },
  {
    "id": 265,
    "dep": 1,
    "name": "servas",
    "long": 5.16667,
    "lat": 46.1333
  },
  {
    "id": 266,
    "dep": 1,
    "name": "cuzieu",
    "long": 5.67445,
    "lat": 45.8192
  },
  {
    "id": 267,
    "dep": 1,
    "name": "jayat",
    "long": 5.11667,
    "lat": 46.3667
  },
  {
    "id": 268,
    "dep": 1,
    "name": "lavours",
    "long": 5.76667,
    "lat": 45.8
  },
  {
    "id": 269,
    "dep": 1,
    "name": "chevroux",
    "long": 4.95,
    "lat": 46.3833
  },
  {
    "id": 270,
    "dep": 1,
    "name": "pollieu",
    "long": 5.75,
    "lat": 45.8
  },
  {
    "id": 271,
    "dep": 1,
    "name": "beligneux",
    "long": 5.11667,
    "lat": 45.8667
  },
  {
    "id": 272,
    "dep": 1,
    "name": "brenaz",
    "long": 5.71667,
    "lat": 45.95
  },
  {
    "id": 273,
    "dep": 1,
    "name": "benonces",
    "long": 5.48333,
    "lat": 45.8333
  },
  {
    "id": 274,
    "dep": 1,
    "name": "saint jean le vieux",
    "long": 5.38917,
    "lat": 46.0284
  },
  {
    "id": 275,
    "dep": 1,
    "name": "beauregard",
    "long": 4.75139,
    "lat": 46.002
  },
  {
    "id": 276,
    "dep": 1,
    "name": "oyonnax",
    "long": 5.66667,
    "lat": 46.25
  },
  {
    "id": 277,
    "dep": 1,
    "name": "mionnay",
    "long": 4.93333,
    "lat": 45.9
  },
  {
    "id": 278,
    "dep": 1,
    "name": "germagnat",
    "long": 5.45,
    "lat": 46.3167
  },
  {
    "id": 279,
    "dep": 1,
    "name": "coligny",
    "long": 5.35,
    "lat": 46.3833
  },
  {
    "id": 280,
    "dep": 1,
    "name": "simandre sur suran",
    "long": 5.41667,
    "lat": 46.2167
  },
  {
    "id": 281,
    "dep": 1,
    "name": "l abergement clemenciat",
    "long": 4.91667,
    "lat": 46.15
  },
  {
    "id": 282,
    "dep": 1,
    "name": "lescheroux",
    "long": 5.15,
    "lat": 46.4
  },
  {
    "id": 283,
    "dep": 1,
    "name": "ornex",
    "long": 6.1,
    "lat": 46.2833
  },
  {
    "id": 284,
    "dep": 1,
    "name": "dommartin",
    "long": 4.99167,
    "lat": 46.3417
  },
  {
    "id": 285,
    "dep": 1,
    "name": "lompnas",
    "long": 5.51667,
    "lat": 45.8
  },
  {
    "id": 286,
    "dep": 1,
    "name": "bettant",
    "long": 5.36667,
    "lat": 45.9333
  },
  {
    "id": 287,
    "dep": 1,
    "name": "armix",
    "long": 5.58333,
    "lat": 45.85
  },
  {
    "id": 288,
    "dep": 1,
    "name": "feillens",
    "long": 4.88333,
    "lat": 46.3333
  },
  {
    "id": 289,
    "dep": 1,
    "name": "chavornay",
    "long": 5.7,
    "lat": 45.8833
  },
  {
    "id": 290,
    "dep": 1,
    "name": "challex",
    "long": 5.96667,
    "lat": 46.1833
  },
  {
    "id": 291,
    "dep": 1,
    "name": "vongnes",
    "long": 5.71667,
    "lat": 45.8167
  },
  {
    "id": 292,
    "dep": 1,
    "name": "magnieu",
    "long": 5.71667,
    "lat": 45.7833
  },
  {
    "id": 293,
    "dep": 1,
    "name": "groissiat",
    "long": 5.6,
    "lat": 46.2167
  },
  {
    "id": 294,
    "dep": 1,
    "name": "dompierre sur chalaronne",
    "long": 4.9,
    "lat": 46.1333
  },
  {
    "id": 295,
    "dep": 1,
    "name": "montluel",
    "long": 5.05,
    "lat": 45.85
  },
  {
    "id": 296,
    "dep": 1,
    "name": "le poizat",
    "long": 5.7,
    "lat": 46.15
  },
  {
    "id": 297,
    "dep": 1,
    "name": "hostiaz",
    "long": 5.53333,
    "lat": 45.9
  },
  {
    "id": 298,
    "dep": 1,
    "name": "montanges",
    "long": 5.8,
    "lat": 46.1667
  },
  {
    "id": 299,
    "dep": 1,
    "name": "sainte julie",
    "long": 5.28333,
    "lat": 45.8833
  },
  {
    "id": 300,
    "dep": 1,
    "name": "bey",
    "long": 4.85,
    "lat": 46.2167
  },
  {
    "id": 301,
    "dep": 1,
    "name": "sonthonnax la montagne",
    "long": 5.53333,
    "lat": 46.2333
  },
  {
    "id": 302,
    "dep": 1,
    "name": "mezeriat",
    "long": 5.03333,
    "lat": 46.2333
  },
  {
    "id": 303,
    "dep": 1,
    "name": "bellignat",
    "long": 5.61667,
    "lat": 46.25
  },
  {
    "id": 304,
    "dep": 1,
    "name": "saint marcel",
    "long": 4.98723,
    "lat": 45.9487
  },
  {
    "id": 305,
    "dep": 1,
    "name": "belley",
    "long": 5.68333,
    "lat": 45.7667
  },
  {
    "id": 306,
    "dep": 1,
    "name": "corbonod",
    "long": 5.81667,
    "lat": 45.95
  },
  {
    "id": 307,
    "dep": 1,
    "name": "neyron",
    "long": 4.93223,
    "lat": 45.8148
  },
  {
    "id": 308,
    "dep": 1,
    "name": "saint paul de varax",
    "long": 5.13333,
    "lat": 46.1
  },
  {
    "id": 309,
    "dep": 1,
    "name": "pressiat",
    "long": 5.38333,
    "lat": 46.3333
  },
  {
    "id": 310,
    "dep": 1,
    "name": "chazey bons",
    "long": 5.68333,
    "lat": 45.8
  },
  {
    "id": 311,
    "dep": 1,
    "name": "servignat",
    "long": 5.06667,
    "lat": 46.4333
  },
  {
    "id": 312,
    "dep": 1,
    "name": "marlieux",
    "long": 5.06667,
    "lat": 46.0667
  },
  {
    "id": 313,
    "dep": 1,
    "name": "andert et condon",
    "long": 5.65,
    "lat": 45.8
  },
  {
    "id": 314,
    "dep": 1,
    "name": "hautecourt romaneche",
    "long": 5.41667,
    "lat": 46.1583
  },
  {
    "id": 315,
    "dep": 1,
    "name": "crottet",
    "long": 4.9,
    "lat": 46.2833
  },
  {
    "id": 316,
    "dep": 1,
    "name": "druillat",
    "long": 5.31667,
    "lat": 46.0667
  },
  {
    "id": 317,
    "dep": 1,
    "name": "dompierre sur veyle",
    "long": 5.2,
    "lat": 46.0667
  },
  {
    "id": 318,
    "dep": 1,
    "name": "perouges",
    "long": 5.18333,
    "lat": 45.9
  },
  {
    "id": 319,
    "dep": 1,
    "name": "rignieux le franc",
    "long": 5.18333,
    "lat": 45.9333
  },
  {
    "id": 320,
    "dep": 1,
    "name": "giron",
    "long": 5.76667,
    "lat": 46.2333
  },
  {
    "id": 321,
    "dep": 1,
    "name": "cerdon",
    "long": 5.46667,
    "lat": 46.0833
  },
  {
    "id": 322,
    "dep": 1,
    "name": "cruzilles les mepillat",
    "long": 4.88333,
    "lat": 46.2167
  },
  {
    "id": 323,
    "dep": 1,
    "name": "lelex",
    "long": 5.95,
    "lat": 46.3
  },
  {
    "id": 324,
    "dep": 1,
    "name": "lhopital",
    "long": 5.77834,
    "lat": 46.0217
  },
  {
    "id": 325,
    "dep": 1,
    "name": "segny",
    "long": 6.08333,
    "lat": 46.3
  },
  {
    "id": 326,
    "dep": 1,
    "name": "cheignieu la balme",
    "long": 5.61667,
    "lat": 45.8333
  },
  {
    "id": 327,
    "dep": 1,
    "name": "saint vulbas",
    "long": 5.28333,
    "lat": 45.8333
  },
  {
    "id": 328,
    "dep": 1,
    "name": "echallon",
    "long": 5.74139,
    "lat": 46.21
  },
  {
    "id": 329,
    "dep": 1,
    "name": "le montellier",
    "long": 5.06667,
    "lat": 45.9333
  },
  {
    "id": 330,
    "dep": 1,
    "name": "martignat",
    "long": 5.6,
    "lat": 46.2167
  },
  {
    "id": 331,
    "dep": 1,
    "name": "ceyzeriat",
    "long": 5.31667,
    "lat": 46.1667
  },
  {
    "id": 332,
    "dep": 1,
    "name": "montcet",
    "long": 5.11667,
    "lat": 46.2
  },
  {
    "id": 333,
    "dep": 1,
    "name": "vonnas",
    "long": 5,
    "lat": 46.2167
  },
  {
    "id": 334,
    "dep": 1,
    "name": "buellas",
    "long": 5.13333,
    "lat": 46.2
  },
  {
    "id": 335,
    "dep": 1,
    "name": "saint benigne",
    "long": 4.96667,
    "lat": 46.4333
  },
  {
    "id": 336,
    "dep": 1,
    "name": "chevillard",
    "long": 5.58333,
    "lat": 46.1167
  },
  {
    "id": 337,
    "dep": 1,
    "name": "bouligneux",
    "long": 5,
    "lat": 46.0167
  },
  {
    "id": 338,
    "dep": 1,
    "name": "contrevoz",
    "long": 5.63333,
    "lat": 45.8
  },
  {
    "id": 339,
    "dep": 1,
    "name": "champdor",
    "long": 5.6,
    "lat": 46.0167
  },
  {
    "id": 340,
    "dep": 1,
    "name": "port",
    "long": 5.56667,
    "lat": 46.1667
  },
  {
    "id": 341,
    "dep": 1,
    "name": "surjoux",
    "long": 5.8,
    "lat": 46.0167
  },
  {
    "id": 342,
    "dep": 1,
    "name": "champfromier",
    "long": 5.81667,
    "lat": 46.2
  },
  {
    "id": 343,
    "dep": 1,
    "name": "vesines",
    "long": 4.86667,
    "lat": 46.35
  },
  {
    "id": 344,
    "dep": 1,
    "name": "seillonnaz",
    "long": 5.48333,
    "lat": 45.8
  },
  {
    "id": 345,
    "dep": 1,
    "name": "varambon",
    "long": 5.31667,
    "lat": 46.0333
  },
  {
    "id": 346,
    "dep": 1,
    "name": "le grand abergement",
    "long": 5.66667,
    "lat": 46.0333
  },
  {
    "id": 347,
    "dep": 1,
    "name": "jassans riottier",
    "long": 4.75,
    "lat": 45.9833
  },
  {
    "id": 348,
    "dep": 1,
    "name": "asnieres sur saone",
    "long": 4.88333,
    "lat": 46.3833
  },
  {
    "id": 349,
    "dep": 1,
    "name": "condamine",
    "long": 5.56667,
    "lat": 46.1167
  },
  {
    "id": 350,
    "dep": 1,
    "name": "lhuis",
    "long": 5.53333,
    "lat": 45.75
  },
  {
    "id": 351,
    "dep": 1,
    "name": "romans",
    "long": 5.03333,
    "lat": 46.1167
  },
  {
    "id": 352,
    "dep": 1,
    "name": "pizay",
    "long": 5.08333,
    "lat": 45.8833
  },
  {
    "id": 353,
    "dep": 1,
    "name": "certines",
    "long": 5.26667,
    "lat": 46.1333
  },
  {
    "id": 354,
    "dep": 1,
    "name": "ruffieu",
    "long": 5.66667,
    "lat": 46
  },
  {
    "id": 355,
    "dep": 1,
    "name": "meximieux",
    "long": 5.2,
    "lat": 45.9
  },
  {
    "id": 356,
    "dep": 1,
    "name": "saint rambert en bugey",
    "long": 5.43333,
    "lat": 45.95
  },
  {
    "id": 357,
    "dep": 1,
    "name": "ambronay",
    "long": 5.35,
    "lat": 46
  },
  {
    "id": 358,
    "dep": 1,
    "name": "cize",
    "long": 5.43333,
    "lat": 46.2
  },
  {
    "id": 359,
    "dep": 1,
    "name": "saint germain sur renon",
    "long": 5.05,
    "lat": 46.0833
  },
  {
    "id": 360,
    "dep": 1,
    "name": "villette sur ain",
    "long": 5.26862,
    "lat": 45.9884
  },
  {
    "id": 361,
    "dep": 1,
    "name": "dagneux",
    "long": 5.06667,
    "lat": 45.85
  },
  {
    "id": 362,
    "dep": 1,
    "name": "boissey",
    "long": 5,
    "lat": 46.3833
  },
  {
    "id": 363,
    "dep": 1,
    "name": "salavre",
    "long": 5.35,
    "lat": 46.3667
  },
  {
    "id": 364,
    "dep": 1,
    "name": "brion",
    "long": 5.55251,
    "lat": 46.1728
  },
  {
    "id": 365,
    "dep": 1,
    "name": "labalme",
    "long": 5.48333,
    "lat": 46.1
  },
  {
    "id": 366,
    "dep": 1,
    "name": "sauverny",
    "long": 6.11667,
    "lat": 46.3167
  },
  {
    "id": 367,
    "dep": 1,
    "name": "montceaux",
    "long": 4.8,
    "lat": 46.1
  },
  {
    "id": 368,
    "dep": 1,
    "name": "brenod",
    "long": 5.6,
    "lat": 46.0667
  },
  {
    "id": 369,
    "dep": 1,
    "name": "miserieux",
    "long": 4.81667,
    "lat": 45.9833
  },
  {
    "id": 370,
    "dep": 1,
    "name": "prevessin moens",
    "long": 6.08333,
    "lat": 46.25
  },
  {
    "id": 371,
    "dep": 1,
    "name": "lent",
    "long": 5.2,
    "lat": 46.1167
  },
  {
    "id": 372,
    "dep": 1,
    "name": "marsonnas",
    "long": 5.06667,
    "lat": 46.3333
  },
  {
    "id": 373,
    "dep": 1,
    "name": "manziat",
    "long": 4.9,
    "lat": 46.35
  },
  {
    "id": 374,
    "dep": 1,
    "name": "trevoux",
    "long": 4.76667,
    "lat": 45.9333
  },
  {
    "id": 375,
    "dep": 1,
    "name": "bellegarde sur valserine",
    "long": 5.81667,
    "lat": 46.1
  },
  {
    "id": 376,
    "dep": 1,
    "name": "bourg en bresse",
    "long": 5.21667,
    "lat": 46.2
  },
  {
    "id": 377,
    "dep": 1,
    "name": "confort",
    "long": 5.81667,
    "lat": 46.15
  },
  {
    "id": 378,
    "dep": 1,
    "name": "saint denis les bourg",
    "long": 5.2,
    "lat": 46.2
  },
  {
    "id": 379,
    "dep": 1,
    "name": "massignieu de rives",
    "long": 5.76667,
    "lat": 45.75
  },
  {
    "id": 380,
    "dep": 1,
    "name": "saint etienne sur chalaronne",
    "long": 4.86667,
    "lat": 46.15
  },
  {
    "id": 381,
    "dep": 1,
    "name": "bohas meyriat rignat",
    "long": 5.4,
    "lat": 46.1333
  },
  {
    "id": 382,
    "dep": 1,
    "name": "chevry",
    "long": 6.03333,
    "lat": 46.2833
  },
  {
    "id": 383,
    "dep": 1,
    "name": "fareins",
    "long": 4.76667,
    "lat": 46.0167
  },
  {
    "id": 384,
    "dep": 1,
    "name": "gorrevod",
    "long": 4.95,
    "lat": 46.4167
  },
  {
    "id": 385,
    "dep": 1,
    "name": "valeins",
    "long": 4.86667,
    "lat": 46.1167
  },
  {
    "id": 386,
    "dep": 1,
    "name": "vieu d izenave",
    "long": 5.53333,
    "lat": 46.0833
  },
  {
    "id": 387,
    "dep": 1,
    "name": "toussieux",
    "long": 4.83333,
    "lat": 45.9667
  },
  {
    "id": 388,
    "dep": 1,
    "name": "arbigny",
    "long": 4.96667,
    "lat": 46.4667
  },
  {
    "id": 389,
    "dep": 1,
    "name": "malafretaz",
    "long": 5.15,
    "lat": 46.3167
  },
  {
    "id": 390,
    "dep": 1,
    "name": "samognat",
    "long": 5.58333,
    "lat": 46.25
  },
  {
    "id": 391,
    "dep": 1,
    "name": "cras sur reyssouze",
    "long": 5.16667,
    "lat": 46.3
  },
  {
    "id": 392,
    "dep": 1,
    "name": "messimy sur saone",
    "long": 4.76473,
    "lat": 46.0484
  },
  {
    "id": 393,
    "dep": 1,
    "name": "pougny",
    "long": 5.95,
    "lat": 46.1333
  },
  {
    "id": 394,
    "dep": 1,
    "name": "sandrans",
    "long": 4.98333,
    "lat": 46.0667
  },
  {
    "id": 395,
    "dep": 1,
    "name": "pont de veyle",
    "long": 4.88333,
    "lat": 46.2667
  },
  {
    "id": 396,
    "dep": 1,
    "name": "mijoux",
    "long": 6,
    "lat": 46.3667
  },
  {
    "id": 397,
    "dep": 1,
    "name": "saint jean de gonville",
    "long": 5.95,
    "lat": 46.2167
  },
  {
    "id": 398,
    "dep": 1,
    "name": "saint andre le bouchoux",
    "long": 5.08333,
    "lat": 46.1167
  },
  {
    "id": 399,
    "dep": 1,
    "name": "chaneins",
    "long": 4.85,
    "lat": 46.1
  },
  {
    "id": 400,
    "dep": 1,
    "name": "joyeux",
    "long": 5.1,
    "lat": 45.95
  },
  {
    "id": 401,
    "dep": 1,
    "name": "tramoyes",
    "long": 4.96667,
    "lat": 45.8667
  },
  {
    "id": 402,
    "dep": 1,
    "name": "biziat",
    "long": 4.93333,
    "lat": 46.2167
  },
  {
    "id": 403,
    "dep": 1,
    "name": "izenave",
    "long": 5.53333,
    "lat": 46.0333
  },
  {
    "id": 404,
    "dep": 1,
    "name": "belmont luthezieu",
    "long": 5.66167,
    "lat": 45.8795
  },
  {
    "id": 405,
    "dep": 1,
    "name": "arbent",
    "long": 5.68333,
    "lat": 46.3
  },
  {
    "id": 406,
    "dep": 1,
    "name": "sutrieu",
    "long": 5.65,
    "lat": 45.95
  },
  {
    "id": 407,
    "dep": 1,
    "name": "serrieres de briord",
    "long": 5.45445,
    "lat": 45.8081
  },
  {
    "id": 408,
    "dep": 1,
    "name": "aranc",
    "long": 5.5,
    "lat": 46
  },
  {
    "id": 409,
    "dep": 1,
    "name": "chaley",
    "long": 5.53333,
    "lat": 45.95
  },
  {
    "id": 410,
    "dep": 1,
    "name": "curciat dongalon",
    "long": 5.15,
    "lat": 46.4667
  },
  {
    "id": 411,
    "dep": 1,
    "name": "loyettes",
    "long": 5.2,
    "lat": 45.7667
  },
  {
    "id": 412,
    "dep": 1,
    "name": "gex",
    "long": 6.06667,
    "lat": 46.3333
  },
  {
    "id": 413,
    "dep": 1,
    "name": "courtes",
    "long": 5.1,
    "lat": 46.4667
  },
  {
    "id": 414,
    "dep": 1,
    "name": "bereziat",
    "long": 5.05,
    "lat": 46.3667
  },
  {
    "id": 415,
    "dep": 1,
    "name": "lapeyrouse",
    "long": 4.96667,
    "lat": 45.9833
  },
  {
    "id": 416,
    "dep": 1,
    "name": "apremont",
    "long": 5.65833,
    "lat": 46.2083
  },
  {
    "id": 417,
    "dep": 1,
    "name": "villieu loyes mollon",
    "long": 5.22223,
    "lat": 45.9206
  },
  {
    "id": 418,
    "dep": 1,
    "name": "leyment",
    "long": 5.3,
    "lat": 45.9167
  },
  {
    "id": 419,
    "dep": 1,
    "name": "etrez",
    "long": 5.18333,
    "lat": 46.3333
  },
  {
    "id": 420,
    "dep": 2,
    "name": "gercy",
    "long": 3.86667,
    "lat": 49.8167
  },
  {
    "id": 421,
    "dep": 2,
    "name": "villemontoire",
    "long": 3.33333,
    "lat": 49.3
  },
  {
    "id": 422,
    "dep": 2,
    "name": "brancourt le grand",
    "long": 3.38333,
    "lat": 49.9667
  },
  {
    "id": 423,
    "dep": 2,
    "name": "licy clignon",
    "long": 3.26667,
    "lat": 49.1
  },
  {
    "id": 424,
    "dep": 2,
    "name": "proisy",
    "long": 3.73333,
    "lat": 49.9
  },
  {
    "id": 425,
    "dep": 2,
    "name": "chambry",
    "long": 3.65,
    "lat": 49.6
  },
  {
    "id": 426,
    "dep": 2,
    "name": "mont saint jean",
    "long": 4.2,
    "lat": 49.7833
  },
  {
    "id": 427,
    "dep": 2,
    "name": "morgny en thierache",
    "long": 4.06667,
    "lat": 49.7667
  },
  {
    "id": 428,
    "dep": 2,
    "name": "mesnil saint laurent",
    "long": 3.35,
    "lat": 49.8333
  },
  {
    "id": 429,
    "dep": 2,
    "name": "annois",
    "long": 3.16667,
    "lat": 49.7167
  },
  {
    "id": 430,
    "dep": 2,
    "name": "brunehamel",
    "long": 4.18333,
    "lat": 49.7667
  },
  {
    "id": 431,
    "dep": 2,
    "name": "audignicourt",
    "long": 3.13333,
    "lat": 49.4833
  },
  {
    "id": 432,
    "dep": 2,
    "name": "montigny sur crecy",
    "long": 3.58333,
    "lat": 49.7167
  },
  {
    "id": 433,
    "dep": 2,
    "name": "lor",
    "long": 4.05,
    "lat": 49.5333
  },
  {
    "id": 434,
    "dep": 2,
    "name": "chivres en laonnois",
    "long": 3.85,
    "lat": 49.6333
  },
  {
    "id": 435,
    "dep": 2,
    "name": "saint gobain",
    "long": 3.38333,
    "lat": 49.6
  },
  {
    "id": 436,
    "dep": 2,
    "name": "ugny le gay",
    "long": 3.16667,
    "lat": 49.6667
  },
  {
    "id": 437,
    "dep": 2,
    "name": "happencourt",
    "long": 3.18333,
    "lat": 49.7833
  },
  {
    "id": 438,
    "dep": 2,
    "name": "prouvais",
    "long": 3.98333,
    "lat": 49.4667
  },
  {
    "id": 439,
    "dep": 2,
    "name": "azy sur marne",
    "long": 3.36667,
    "lat": 49
  },
  {
    "id": 440,
    "dep": 2,
    "name": "terny sorny",
    "long": 3.36667,
    "lat": 49.45
  },
  {
    "id": 441,
    "dep": 2,
    "name": "droizy",
    "long": 3.38333,
    "lat": 49.2833
  },
  {
    "id": 442,
    "dep": 2,
    "name": "pignicourt",
    "long": 4.03333,
    "lat": 49.4167
  },
  {
    "id": 443,
    "dep": 2,
    "name": "moussy verneuil",
    "long": 3.63333,
    "lat": 49.4167
  },
  {
    "id": 444,
    "dep": 2,
    "name": "aguilcourt",
    "long": 3.96667,
    "lat": 49.4
  },
  {
    "id": 445,
    "dep": 2,
    "name": "montaigu",
    "long": 3.83333,
    "lat": 49.5333
  },
  {
    "id": 446,
    "dep": 2,
    "name": "moulins",
    "long": 3.68333,
    "lat": 49.4167
  },
  {
    "id": 447,
    "dep": 2,
    "name": "saulchery",
    "long": 3.3,
    "lat": 48.9833
  },
  {
    "id": 448,
    "dep": 2,
    "name": "nanteuil la fosse",
    "long": 3.45,
    "lat": 49.4333
  },
  {
    "id": 449,
    "dep": 2,
    "name": "guignicourt",
    "long": 3.96667,
    "lat": 49.4333
  },
  {
    "id": 450,
    "dep": 2,
    "name": "bucy le long",
    "long": 3.38333,
    "lat": 49.4
  },
  {
    "id": 451,
    "dep": 2,
    "name": "longpont",
    "long": 3.21667,
    "lat": 49.2667
  },
  {
    "id": 452,
    "dep": 2,
    "name": "montgobert",
    "long": 3.15,
    "lat": 49.3
  },
  {
    "id": 453,
    "dep": 2,
    "name": "noircourt",
    "long": 4.1,
    "lat": 49.6667
  },
  {
    "id": 454,
    "dep": 2,
    "name": "rozet saint albin",
    "long": 3.3,
    "lat": 49.2
  },
  {
    "id": 455,
    "dep": 2,
    "name": "chivy les etouvelles",
    "long": 3.58333,
    "lat": 49.5167
  },
  {
    "id": 456,
    "dep": 2,
    "name": "chavonne",
    "long": 3.56667,
    "lat": 49.4
  },
  {
    "id": 457,
    "dep": 2,
    "name": "artonges",
    "long": 3.55,
    "lat": 48.9333
  },
  {
    "id": 458,
    "dep": 2,
    "name": "oisy",
    "long": 3.66667,
    "lat": 50.0167
  },
  {
    "id": 459,
    "dep": 2,
    "name": "juvigny",
    "long": 3.31667,
    "lat": 49.45
  },
  {
    "id": 460,
    "dep": 2,
    "name": "marchais en brie",
    "long": 3.48333,
    "lat": 48.8833
  },
  {
    "id": 461,
    "dep": 2,
    "name": "bouconville vauclair",
    "long": 3.75556,
    "lat": 49.4656
  },
  {
    "id": 462,
    "dep": 2,
    "name": "la bouteille",
    "long": 3.96667,
    "lat": 49.8667
  },
  {
    "id": 463,
    "dep": 2,
    "name": "ly fontaine",
    "long": 3.3,
    "lat": 49.7167
  },
  {
    "id": 464,
    "dep": 2,
    "name": "logny les aubenton",
    "long": 4.2,
    "lat": 49.8333
  },
  {
    "id": 465,
    "dep": 2,
    "name": "cuirieux",
    "long": 3.81667,
    "lat": 49.6833
  },
  {
    "id": 466,
    "dep": 2,
    "name": "iron",
    "long": 3.66667,
    "lat": 49.95
  },
  {
    "id": 467,
    "dep": 2,
    "name": "joncourt",
    "long": 3.3,
    "lat": 49.95
  },
  {
    "id": 468,
    "dep": 2,
    "name": "effry",
    "long": 4,
    "lat": 49.9333
  },
  {
    "id": 469,
    "dep": 2,
    "name": "jumigny",
    "long": 3.71667,
    "lat": 49.4167
  },
  {
    "id": 470,
    "dep": 2,
    "name": "chaourse",
    "long": 4,
    "lat": 49.7
  },
  {
    "id": 471,
    "dep": 2,
    "name": "saint remy blanzy",
    "long": 3.3,
    "lat": 49.2333
  },
  {
    "id": 472,
    "dep": 2,
    "name": "beaumont en beine",
    "long": 3.13333,
    "lat": 49.7
  },
  {
    "id": 473,
    "dep": 2,
    "name": "le plessier huleu",
    "long": 3.35,
    "lat": 49.2333
  },
  {
    "id": 474,
    "dep": 2,
    "name": "estrees",
    "long": 3.28333,
    "lat": 49.9667
  },
  {
    "id": 475,
    "dep": 2,
    "name": "baulne en brie",
    "long": 3.61667,
    "lat": 48.9833
  },
  {
    "id": 476,
    "dep": 2,
    "name": "guivry",
    "long": 3.11667,
    "lat": 49.65
  },
  {
    "id": 477,
    "dep": 2,
    "name": "variscourt",
    "long": 3.98333,
    "lat": 49.4167
  },
  {
    "id": 478,
    "dep": 2,
    "name": "chatillon sur oise",
    "long": 3.4,
    "lat": 49.7833
  },
  {
    "id": 479,
    "dep": 2,
    "name": "soissons",
    "long": 3.33333,
    "lat": 49.3667
  },
  {
    "id": 480,
    "dep": 2,
    "name": "bray saint christophe",
    "long": 3.15,
    "lat": 49.7667
  },
  {
    "id": 481,
    "dep": 2,
    "name": "le herie la vieville",
    "long": 3.63333,
    "lat": 49.8167
  },
  {
    "id": 482,
    "dep": 2,
    "name": "aubenton",
    "long": 4.2,
    "lat": 49.8333
  },
  {
    "id": 483,
    "dep": 2,
    "name": "braye",
    "long": 3.36667,
    "lat": 49.4333
  },
  {
    "id": 484,
    "dep": 2,
    "name": "brissay choigny",
    "long": 3.36667,
    "lat": 49.7167
  },
  {
    "id": 485,
    "dep": 2,
    "name": "remaucourt",
    "long": 3.33333,
    "lat": 49.9
  },
  {
    "id": 486,
    "dep": 2,
    "name": "seraucourt le grand",
    "long": 3.21667,
    "lat": 49.7833
  },
  {
    "id": 487,
    "dep": 2,
    "name": "berry au bac",
    "long": 3.9,
    "lat": 49.4
  },
  {
    "id": 488,
    "dep": 2,
    "name": "vivaise",
    "long": 3.56667,
    "lat": 49.6167
  },
  {
    "id": 489,
    "dep": 2,
    "name": "proviseux et plesnoy",
    "long": 4,
    "lat": 49.4667
  },
  {
    "id": 490,
    "dep": 2,
    "name": "caumont",
    "long": 3.18333,
    "lat": 49.6167
  },
  {
    "id": 491,
    "dep": 2,
    "name": "villers le sec",
    "long": 3.5,
    "lat": 49.7833
  },
  {
    "id": 492,
    "dep": 2,
    "name": "vichel nanteuil",
    "long": 3.28333,
    "lat": 49.1833
  },
  {
    "id": 493,
    "dep": 2,
    "name": "romery",
    "long": 3.73333,
    "lat": 49.9
  },
  {
    "id": 494,
    "dep": 2,
    "name": "fontaine les clercs",
    "long": 3.21667,
    "lat": 49.8
  },
  {
    "id": 495,
    "dep": 2,
    "name": "chery les pouilly",
    "long": 3.6,
    "lat": 49.65
  },
  {
    "id": 496,
    "dep": 2,
    "name": "pithon",
    "long": 3.1,
    "lat": 49.75
  },
  {
    "id": 497,
    "dep": 2,
    "name": "beaurieux",
    "long": 3.73333,
    "lat": 49.4
  },
  {
    "id": 498,
    "dep": 2,
    "name": "sinceny",
    "long": 3.25,
    "lat": 49.6
  },
  {
    "id": 499,
    "dep": 2,
    "name": "bouffignereux",
    "long": 3.85,
    "lat": 49.3667
  },
  {
    "id": 500,
    "dep": 2,
    "name": "saint gengoulph",
    "long": 3.21667,
    "lat": 49.1167
  },
  {
    "id": 501,
    "dep": 2,
    "name": "pargny les bois",
    "long": 3.61667,
    "lat": 49.7167
  },
  {
    "id": 502,
    "dep": 2,
    "name": "montigny l allier",
    "long": 3.1,
    "lat": 49.1167
  },
  {
    "id": 503,
    "dep": 2,
    "name": "beuvardes",
    "long": 3.48333,
    "lat": 49.15
  },
  {
    "id": 504,
    "dep": 2,
    "name": "cuissy et geny",
    "long": 3.7,
    "lat": 49.4167
  },
  {
    "id": 505,
    "dep": 2,
    "name": "reuilly sauvigny",
    "long": 3.55,
    "lat": 49.0667
  },
  {
    "id": 506,
    "dep": 2,
    "name": "vailly sur aisne",
    "long": 3.51667,
    "lat": 49.4167
  },
  {
    "id": 507,
    "dep": 2,
    "name": "bievres",
    "long": 3.71667,
    "lat": 49.5
  },
  {
    "id": 508,
    "dep": 2,
    "name": "berny riviere",
    "long": 3.15,
    "lat": 49.4167
  },
  {
    "id": 509,
    "dep": 2,
    "name": "perles",
    "long": 3.65,
    "lat": 49.3167
  },
  {
    "id": 510,
    "dep": 2,
    "name": "fontenelle en brie",
    "long": 3.48333,
    "lat": 48.9167
  },
  {
    "id": 511,
    "dep": 2,
    "name": "neuflieux",
    "long": 3.16667,
    "lat": 49.6
  },
  {
    "id": 512,
    "dep": 2,
    "name": "sainte croix",
    "long": 3.78333,
    "lat": 49.4833
  },
  {
    "id": 513,
    "dep": 2,
    "name": "pargny la dhuys",
    "long": 3.55,
    "lat": 48.95
  },
  {
    "id": 514,
    "dep": 2,
    "name": "brenelle",
    "long": 3.53333,
    "lat": 49.3667
  },
  {
    "id": 515,
    "dep": 2,
    "name": "urvillers",
    "long": 3.31667,
    "lat": 49.7833
  },
  {
    "id": 516,
    "dep": 2,
    "name": "laversine",
    "long": 3.16667,
    "lat": 49.35
  },
  {
    "id": 517,
    "dep": 2,
    "name": "origny sainte benoite",
    "long": 3.5,
    "lat": 49.8333
  },
  {
    "id": 518,
    "dep": 2,
    "name": "cuiry housse",
    "long": 3.48333,
    "lat": 49.3
  },
  {
    "id": 519,
    "dep": 2,
    "name": "la neuville les dorengt",
    "long": 3.68333,
    "lat": 49.9667
  },
  {
    "id": 520,
    "dep": 2,
    "name": "blanzy les fismes",
    "long": 3.66667,
    "lat": 49.3333
  },
  {
    "id": 521,
    "dep": 2,
    "name": "hargicourt",
    "long": 3.18,
    "lat": 49.9623
  },
  {
    "id": 522,
    "dep": 2,
    "name": "villers sur fere",
    "long": 3.53333,
    "lat": 49.1833
  },
  {
    "id": 523,
    "dep": 2,
    "name": "la herie",
    "long": 4.05,
    "lat": 49.8833
  },
  {
    "id": 524,
    "dep": 2,
    "name": "bonnesvalyn",
    "long": 3.31667,
    "lat": 49.1167
  },
  {
    "id": 525,
    "dep": 2,
    "name": "haution",
    "long": 3.83333,
    "lat": 49.85
  },
  {
    "id": 526,
    "dep": 2,
    "name": "berzy le sec",
    "long": 3.31667,
    "lat": 49.3333
  },
  {
    "id": 527,
    "dep": 2,
    "name": "la vallee au ble",
    "long": 3.78333,
    "lat": 49.8667
  },
  {
    "id": 528,
    "dep": 2,
    "name": "le catelet",
    "long": 3.25,
    "lat": 50
  },
  {
    "id": 529,
    "dep": 2,
    "name": "gizy",
    "long": 3.76667,
    "lat": 49.6
  },
  {
    "id": 530,
    "dep": 2,
    "name": "saint algis",
    "long": 3.81667,
    "lat": 49.8833
  },
  {
    "id": 531,
    "dep": 2,
    "name": "saint aubin",
    "long": 3.18333,
    "lat": 49.5167
  },
  {
    "id": 532,
    "dep": 2,
    "name": "bancigny",
    "long": 4.01667,
    "lat": 49.8
  },
  {
    "id": 533,
    "dep": 2,
    "name": "villeneuve sur fere",
    "long": 3.46667,
    "lat": 49.1833
  },
  {
    "id": 534,
    "dep": 2,
    "name": "fleury",
    "long": 3.15639,
    "lat": 49.2581
  },
  {
    "id": 535,
    "dep": 2,
    "name": "quincy sous le mont",
    "long": 3.55,
    "lat": 49.3
  },
  {
    "id": 536,
    "dep": 2,
    "name": "besny et loizy",
    "long": 3.58333,
    "lat": 49.6
  },
  {
    "id": 537,
    "dep": 2,
    "name": "chery les rozoy",
    "long": 4.08333,
    "lat": 49.7167
  },
  {
    "id": 538,
    "dep": 2,
    "name": "chauny",
    "long": 3.21667,
    "lat": 49.6167
  },
  {
    "id": 539,
    "dep": 2,
    "name": "sommette eaucourt",
    "long": 3.11667,
    "lat": 49.7333
  },
  {
    "id": 540,
    "dep": 2,
    "name": "lierval",
    "long": 3.61667,
    "lat": 49.4833
  },
  {
    "id": 541,
    "dep": 2,
    "name": "chezy sur marne",
    "long": 3.36667,
    "lat": 48.9833
  },
  {
    "id": 542,
    "dep": 2,
    "name": "oulches la vallee foulon",
    "long": 3.75,
    "lat": 49.4333
  },
  {
    "id": 543,
    "dep": 2,
    "name": "anizy le chateau",
    "long": 3.45,
    "lat": 49.5
  },
  {
    "id": 544,
    "dep": 2,
    "name": "maizy",
    "long": 3.73333,
    "lat": 49.3833
  },
  {
    "id": 545,
    "dep": 2,
    "name": "fourdrain",
    "long": 3.46667,
    "lat": 49.6
  },
  {
    "id": 546,
    "dep": 2,
    "name": "nampteuil sous muret",
    "long": 3.41667,
    "lat": 49.3
  },
  {
    "id": 547,
    "dep": 2,
    "name": "urcel",
    "long": 3.55,
    "lat": 49.5
  },
  {
    "id": 548,
    "dep": 2,
    "name": "louatre",
    "long": 3.25,
    "lat": 49.25
  },
  {
    "id": 549,
    "dep": 2,
    "name": "barzy en thierache",
    "long": 3.75,
    "lat": 50.0333
  },
  {
    "id": 550,
    "dep": 2,
    "name": "conde en brie",
    "long": 3.55,
    "lat": 49
  },
  {
    "id": 551,
    "dep": 2,
    "name": "dampleux",
    "long": 3.15,
    "lat": 49.25
  },
  {
    "id": 552,
    "dep": 2,
    "name": "sommelans",
    "long": 3.3,
    "lat": 49.1333
  },
  {
    "id": 553,
    "dep": 2,
    "name": "pontruet",
    "long": 3.23333,
    "lat": 49.9
  },
  {
    "id": 554,
    "dep": 2,
    "name": "oigny en valois",
    "long": 3.13333,
    "lat": 49.2167
  },
  {
    "id": 555,
    "dep": 2,
    "name": "loupeigne",
    "long": 3.53333,
    "lat": 49.25
  },
  {
    "id": 556,
    "dep": 2,
    "name": "lhuys",
    "long": 3.55,
    "lat": 49.2833
  },
  {
    "id": 557,
    "dep": 2,
    "name": "eparcy",
    "long": 4.06667,
    "lat": 49.8667
  },
  {
    "id": 558,
    "dep": 2,
    "name": "la chapelle monthodon",
    "long": 3.63333,
    "lat": 49.0167
  },
  {
    "id": 559,
    "dep": 2,
    "name": "morsain",
    "long": 3.18333,
    "lat": 49.45
  },
  {
    "id": 560,
    "dep": 2,
    "name": "jaulgonne",
    "long": 3.53333,
    "lat": 49.0833
  },
  {
    "id": 561,
    "dep": 2,
    "name": "chermizy ailles",
    "long": 3.73333,
    "lat": 49.4667
  },
  {
    "id": 562,
    "dep": 2,
    "name": "becquigny",
    "long": 3.46973,
    "lat": 50.0173
  },
  {
    "id": 563,
    "dep": 2,
    "name": "festieux",
    "long": 3.75,
    "lat": 49.5167
  },
  {
    "id": 564,
    "dep": 2,
    "name": "villers les guise",
    "long": 3.68333,
    "lat": 49.9
  },
  {
    "id": 565,
    "dep": 2,
    "name": "nampcelles la cour",
    "long": 4,
    "lat": 49.7833
  },
  {
    "id": 566,
    "dep": 2,
    "name": "montigny en arrouaise",
    "long": 3.48333,
    "lat": 49.9
  },
  {
    "id": 567,
    "dep": 2,
    "name": "berrieux",
    "long": 3.85,
    "lat": 49.4833
  },
  {
    "id": 568,
    "dep": 2,
    "name": "chigny",
    "long": 3.76667,
    "lat": 49.9167
  },
  {
    "id": 569,
    "dep": 2,
    "name": "muret et crouttes",
    "long": 3.41667,
    "lat": 49.2833
  },
  {
    "id": 570,
    "dep": 2,
    "name": "flavigny le grand et beaurain",
    "long": 3.66473,
    "lat": 49.8909
  },
  {
    "id": 571,
    "dep": 2,
    "name": "laon",
    "long": 3.61667,
    "lat": 49.5667
  },
  {
    "id": 572,
    "dep": 2,
    "name": "saint clement",
    "long": 4.06667,
    "lat": 49.7667
  },
  {
    "id": 573,
    "dep": 2,
    "name": "dercy",
    "long": 3.68333,
    "lat": 49.7
  },
  {
    "id": 574,
    "dep": 2,
    "name": "anguilcourt le sart",
    "long": 3.43333,
    "lat": 49.6833
  },
  {
    "id": 575,
    "dep": 2,
    "name": "villers en prayeres",
    "long": 3.66667,
    "lat": 49.3833
  },
  {
    "id": 576,
    "dep": 2,
    "name": "chalandry",
    "long": 3.63333,
    "lat": 49.6833
  },
  {
    "id": 577,
    "dep": 2,
    "name": "laval en laonnois",
    "long": 3.6,
    "lat": 49.5
  },
  {
    "id": 578,
    "dep": 2,
    "name": "fressancourt",
    "long": 3.41667,
    "lat": 49.6167
  },
  {
    "id": 579,
    "dep": 2,
    "name": "le sourd",
    "long": 3.75,
    "lat": 49.8667
  },
  {
    "id": 580,
    "dep": 2,
    "name": "fontaine notre dame",
    "long": 3.43333,
    "lat": 49.8833
  },
  {
    "id": 581,
    "dep": 2,
    "name": "chery chartreuve",
    "long": 3.61667,
    "lat": 49.2667
  },
  {
    "id": 582,
    "dep": 2,
    "name": "mortefontaine",
    "long": 3.07611,
    "lat": 49.3317
  },
  {
    "id": 583,
    "dep": 2,
    "name": "serain",
    "long": 3.36667,
    "lat": 50.0167
  },
  {
    "id": 584,
    "dep": 2,
    "name": "maast et violaine",
    "long": 3.45,
    "lat": 49.2833
  },
  {
    "id": 585,
    "dep": 2,
    "name": "neuville sur ailette",
    "long": 3.7,
    "lat": 49.4667
  },
  {
    "id": 586,
    "dep": 2,
    "name": "francilly selency",
    "long": 3.23333,
    "lat": 49.85
  },
  {
    "id": 587,
    "dep": 2,
    "name": "bezu le guery",
    "long": 3.23333,
    "lat": 49.0167
  },
  {
    "id": 588,
    "dep": 2,
    "name": "marle",
    "long": 3.76667,
    "lat": 49.7333
  },
  {
    "id": 589,
    "dep": 2,
    "name": "leme",
    "long": 3.76667,
    "lat": 49.8333
  },
  {
    "id": 590,
    "dep": 2,
    "name": "cierges",
    "long": 3.6,
    "lat": 49.1667
  },
  {
    "id": 591,
    "dep": 2,
    "name": "craonne",
    "long": 3.78333,
    "lat": 49.4333
  },
  {
    "id": 592,
    "dep": 2,
    "name": "courtemont varennes",
    "long": 3.55,
    "lat": 49.0667
  },
  {
    "id": 593,
    "dep": 2,
    "name": "pommiers",
    "long": 3.26667,
    "lat": 49.4
  },
  {
    "id": 594,
    "dep": 2,
    "name": "gland",
    "long": 3.46667,
    "lat": 49.05
  },
  {
    "id": 595,
    "dep": 2,
    "name": "landouzy la cour",
    "long": 3.98333,
    "lat": 49.85
  },
  {
    "id": 596,
    "dep": 2,
    "name": "montigny les conde",
    "long": 3.56667,
    "lat": 48.9833
  },
  {
    "id": 597,
    "dep": 2,
    "name": "leuilly sous coucy",
    "long": 3.33333,
    "lat": 49.4833
  },
  {
    "id": 598,
    "dep": 2,
    "name": "ploisy",
    "long": 3.3,
    "lat": 49.3333
  },
  {
    "id": 599,
    "dep": 2,
    "name": "serval",
    "long": 3.68333,
    "lat": 49.35
  },
  {
    "id": 600,
    "dep": 2,
    "name": "billy sur ourcq",
    "long": 3.3,
    "lat": 49.2167
  },
  {
    "id": 601,
    "dep": 2,
    "name": "ambrief",
    "long": 3.4,
    "lat": 49.3167
  },
  {
    "id": 602,
    "dep": 2,
    "name": "prisces",
    "long": 3.86667,
    "lat": 49.7833
  },
  {
    "id": 603,
    "dep": 2,
    "name": "roupy",
    "long": 3.18333,
    "lat": 49.8167
  },
  {
    "id": 604,
    "dep": 2,
    "name": "roncheres",
    "long": 3.6,
    "lat": 49.15
  },
  {
    "id": 605,
    "dep": 2,
    "name": "lugny",
    "long": 3.81667,
    "lat": 49.7833
  },
  {
    "id": 606,
    "dep": 2,
    "name": "chezy en orxois",
    "long": 3.18333,
    "lat": 49.1333
  },
  {
    "id": 607,
    "dep": 2,
    "name": "dhuizel",
    "long": 3.61667,
    "lat": 49.3667
  },
  {
    "id": 608,
    "dep": 2,
    "name": "etampes sur marne",
    "long": 3.41667,
    "lat": 49.0333
  },
  {
    "id": 609,
    "dep": 2,
    "name": "vaux en vermandois",
    "long": 3.15,
    "lat": 49.8167
  },
  {
    "id": 610,
    "dep": 2,
    "name": "boue",
    "long": 3.7,
    "lat": 50.0167
  },
  {
    "id": 611,
    "dep": 2,
    "name": "la fere",
    "long": 3.36667,
    "lat": 49.6667
  },
  {
    "id": 612,
    "dep": 2,
    "name": "saint michel",
    "long": 4.13333,
    "lat": 49.9167
  },
  {
    "id": 613,
    "dep": 2,
    "name": "castres",
    "long": 3.23333,
    "lat": 49.8
  },
  {
    "id": 614,
    "dep": 2,
    "name": "mesbrecourt richecourt",
    "long": 3.55,
    "lat": 49.7
  },
  {
    "id": 615,
    "dep": 2,
    "name": "beugneux",
    "long": 3.41667,
    "lat": 49.2333
  },
  {
    "id": 616,
    "dep": 2,
    "name": "clermont les fermes",
    "long": 3.95,
    "lat": 49.6667
  },
  {
    "id": 617,
    "dep": 2,
    "name": "condren",
    "long": 3.28333,
    "lat": 49.6167
  },
  {
    "id": 618,
    "dep": 2,
    "name": "franqueville",
    "long": 3.80945,
    "lat": 49.81
  },
  {
    "id": 619,
    "dep": 2,
    "name": "arcy sainte restitue",
    "long": 3.46667,
    "lat": 49.25
  },
  {
    "id": 620,
    "dep": 2,
    "name": "burelles",
    "long": 3.9,
    "lat": 49.7833
  },
  {
    "id": 621,
    "dep": 2,
    "name": "rocourt saint martin",
    "long": 3.38333,
    "lat": 49.15
  },
  {
    "id": 622,
    "dep": 2,
    "name": "commenchon",
    "long": 3.16667,
    "lat": 49.6333
  },
  {
    "id": 623,
    "dep": 2,
    "name": "voulpaix",
    "long": 3.83333,
    "lat": 49.8333
  },
  {
    "id": 624,
    "dep": 2,
    "name": "bucy les cerny",
    "long": 3.51667,
    "lat": 49.5833
  },
  {
    "id": 625,
    "dep": 2,
    "name": "renansart",
    "long": 3.45,
    "lat": 49.7167
  },
  {
    "id": 626,
    "dep": 2,
    "name": "presles et boves",
    "long": 3.55,
    "lat": 49.4
  },
  {
    "id": 627,
    "dep": 2,
    "name": "lavaqueresse",
    "long": 3.70833,
    "lat": 49.95
  },
  {
    "id": 628,
    "dep": 2,
    "name": "cuffies",
    "long": 3.31667,
    "lat": 49.4167
  },
  {
    "id": 629,
    "dep": 2,
    "name": "villequier aumont",
    "long": 3.2,
    "lat": 49.65
  },
  {
    "id": 630,
    "dep": 2,
    "name": "vendelles",
    "long": 3.13333,
    "lat": 49.9167
  },
  {
    "id": 631,
    "dep": 2,
    "name": "attilly",
    "long": 3.16667,
    "lat": 49.85
  },
  {
    "id": 632,
    "dep": 2,
    "name": "berlancourt",
    "long": 3.75806,
    "lat": 49.7787
  },
  {
    "id": 633,
    "dep": 2,
    "name": "grisolles",
    "long": 3.35,
    "lat": 49.15
  },
  {
    "id": 634,
    "dep": 2,
    "name": "courcelles sur vesle",
    "long": 3.57195,
    "lat": 49.3381
  },
  {
    "id": 635,
    "dep": 2,
    "name": "sons et roncheres",
    "long": 3.66667,
    "lat": 49.75
  },
  {
    "id": 636,
    "dep": 2,
    "name": "seringes et nesles",
    "long": 3.53333,
    "lat": 49.2
  },
  {
    "id": 637,
    "dep": 2,
    "name": "grandlup et fay",
    "long": 3.73333,
    "lat": 49.6667
  },
  {
    "id": 638,
    "dep": 2,
    "name": "coincy",
    "long": 3.41667,
    "lat": 49.1667
  },
  {
    "id": 639,
    "dep": 2,
    "name": "marly gomont",
    "long": 3.8,
    "lat": 49.9
  },
  {
    "id": 640,
    "dep": 2,
    "name": "macogny",
    "long": 3.23333,
    "lat": 49.1667
  },
  {
    "id": 641,
    "dep": 2,
    "name": "tartiers",
    "long": 3.23333,
    "lat": 49.4333
  },
  {
    "id": 642,
    "dep": 2,
    "name": "gibercourt",
    "long": 3.28333,
    "lat": 49.7333
  },
  {
    "id": 643,
    "dep": 2,
    "name": "pontru",
    "long": 3.21667,
    "lat": 49.9
  },
  {
    "id": 644,
    "dep": 2,
    "name": "trelou sur marne",
    "long": 3.60695,
    "lat": 49.077
  },
  {
    "id": 645,
    "dep": 2,
    "name": "la ville aux bois les dizy",
    "long": 3.99334,
    "lat": 49.6612
  },
  {
    "id": 646,
    "dep": 2,
    "name": "amigny rouy",
    "long": 3.3,
    "lat": 49.6
  },
  {
    "id": 647,
    "dep": 2,
    "name": "charmes",
    "long": 3.38333,
    "lat": 49.65
  },
  {
    "id": 648,
    "dep": 2,
    "name": "viffort",
    "long": 3.45,
    "lat": 48.9667
  },
  {
    "id": 649,
    "dep": 2,
    "name": "machecourt",
    "long": 3.84167,
    "lat": 49.6583
  },
  {
    "id": 650,
    "dep": 2,
    "name": "nogent l artaud",
    "long": 3.31667,
    "lat": 48.9667
  },
  {
    "id": 651,
    "dep": 2,
    "name": "tannieres",
    "long": 3.55,
    "lat": 49.2833
  },
  {
    "id": 652,
    "dep": 2,
    "name": "saint erme outre et ramecourt",
    "long": 3.85,
    "lat": 49.5167
  },
  {
    "id": 653,
    "dep": 2,
    "name": "jouaignes",
    "long": 3.5,
    "lat": 49.3
  },
  {
    "id": 654,
    "dep": 2,
    "name": "vaucelles et beffecourt",
    "long": 3.55,
    "lat": 49.5333
  },
  {
    "id": 655,
    "dep": 2,
    "name": "lesquielles saint germain",
    "long": 3.61667,
    "lat": 49.9333
  },
  {
    "id": 656,
    "dep": 2,
    "name": "aizy jouy",
    "long": 3.51639,
    "lat": 49.4348
  },
  {
    "id": 657,
    "dep": 2,
    "name": "faucoucourt",
    "long": 3.46667,
    "lat": 49.5333
  },
  {
    "id": 658,
    "dep": 2,
    "name": "chavigny",
    "long": 3.3,
    "lat": 49.4333
  },
  {
    "id": 659,
    "dep": 2,
    "name": "veuilly la poterie",
    "long": 3.21667,
    "lat": 49.0833
  },
  {
    "id": 660,
    "dep": 2,
    "name": "mezy moulins",
    "long": 3.5,
    "lat": 49.0667
  },
  {
    "id": 661,
    "dep": 2,
    "name": "gernicourt",
    "long": 3.86667,
    "lat": 49.4
  },
  {
    "id": 662,
    "dep": 2,
    "name": "quincy basse",
    "long": 3.38333,
    "lat": 49.5167
  },
  {
    "id": 663,
    "dep": 2,
    "name": "sergy",
    "long": 3.56667,
    "lat": 49.1833
  },
  {
    "id": 664,
    "dep": 2,
    "name": "toulis et attencourt",
    "long": 3.73333,
    "lat": 49.6833
  },
  {
    "id": 665,
    "dep": 2,
    "name": "puiseux en retz",
    "long": 3.13333,
    "lat": 49.3
  },
  {
    "id": 666,
    "dep": 2,
    "name": "leuze",
    "long": 4.15,
    "lat": 49.85
  },
  {
    "id": 667,
    "dep": 2,
    "name": "crezancy",
    "long": 3.5,
    "lat": 49.05
  },
  {
    "id": 668,
    "dep": 2,
    "name": "noyales",
    "long": 3.55,
    "lat": 49.9
  },
  {
    "id": 669,
    "dep": 2,
    "name": "marigny en orxois",
    "long": 3.21667,
    "lat": 49.0667
  },
  {
    "id": 670,
    "dep": 2,
    "name": "foreste",
    "long": 3.1,
    "lat": 49.8167
  },
  {
    "id": 671,
    "dep": 2,
    "name": "wissignicourt",
    "long": 3.43333,
    "lat": 49.5333
  },
  {
    "id": 672,
    "dep": 2,
    "name": "tavaux et pontsericourt",
    "long": 3.91667,
    "lat": 49.7333
  },
  {
    "id": 673,
    "dep": 2,
    "name": "saponay",
    "long": 3.48333,
    "lat": 49.2167
  },
  {
    "id": 674,
    "dep": 2,
    "name": "ebouleau",
    "long": 3.86667,
    "lat": 49.6667
  },
  {
    "id": 675,
    "dep": 2,
    "name": "orainville",
    "long": 4.01667,
    "lat": 49.3833
  },
  {
    "id": 676,
    "dep": 2,
    "name": "missy les pierrepont",
    "long": 3.8,
    "lat": 49.6333
  },
  {
    "id": 677,
    "dep": 2,
    "name": "neuilly saint front",
    "long": 3.26667,
    "lat": 49.1667
  },
  {
    "id": 678,
    "dep": 2,
    "name": "tergnier",
    "long": 3.3,
    "lat": 49.65
  },
  {
    "id": 679,
    "dep": 2,
    "name": "la ferte milon",
    "long": 3.11667,
    "lat": 49.1667
  },
  {
    "id": 680,
    "dep": 2,
    "name": "bassoles aulers",
    "long": 3.38333,
    "lat": 49.5333
  },
  {
    "id": 681,
    "dep": 2,
    "name": "le verguier",
    "long": 3.16667,
    "lat": 49.9333
  },
  {
    "id": 682,
    "dep": 2,
    "name": "ostel",
    "long": 3.56667,
    "lat": 49.4333
  },
  {
    "id": 683,
    "dep": 2,
    "name": "sissy",
    "long": 3.43333,
    "lat": 49.8
  },
  {
    "id": 684,
    "dep": 2,
    "name": "leury",
    "long": 3.33333,
    "lat": 49.4333
  },
  {
    "id": 685,
    "dep": 2,
    "name": "la croix sur ourcq",
    "long": 3.35,
    "lat": 49.1667
  },
  {
    "id": 686,
    "dep": 2,
    "name": "pernant",
    "long": 3.23333,
    "lat": 49.3833
  },
  {
    "id": 687,
    "dep": 2,
    "name": "etreux",
    "long": 3.65,
    "lat": 49.9833
  },
  {
    "id": 688,
    "dep": 2,
    "name": "bruys",
    "long": 3.56667,
    "lat": 49.2667
  },
  {
    "id": 689,
    "dep": 2,
    "name": "fontenelle",
    "long": 3.86667,
    "lat": 50.0333
  },
  {
    "id": 690,
    "dep": 2,
    "name": "cerseuil",
    "long": 3.51667,
    "lat": 49.3333
  },
  {
    "id": 691,
    "dep": 2,
    "name": "voharies",
    "long": 3.8,
    "lat": 49.7833
  },
  {
    "id": 692,
    "dep": 2,
    "name": "saint pierre aigle",
    "long": 3.18333,
    "lat": 49.3167
  },
  {
    "id": 693,
    "dep": 2,
    "name": "saint martin riviere",
    "long": 3.53333,
    "lat": 50.05
  },
  {
    "id": 694,
    "dep": 2,
    "name": "nanteuil notre dame",
    "long": 3.4,
    "lat": 49.2
  },
  {
    "id": 695,
    "dep": 2,
    "name": "selens",
    "long": 3.2,
    "lat": 49.5
  },
  {
    "id": 696,
    "dep": 2,
    "name": "monthenault",
    "long": 3.66667,
    "lat": 49.4833
  },
  {
    "id": 697,
    "dep": 2,
    "name": "saint eugene",
    "long": 3.53333,
    "lat": 49.0167
  },
  {
    "id": 698,
    "dep": 2,
    "name": "etouvelles",
    "long": 3.58333,
    "lat": 49.5333
  },
  {
    "id": 699,
    "dep": 2,
    "name": "faverolles",
    "long": 3.17639,
    "lat": 49.2242
  },
  {
    "id": 700,
    "dep": 2,
    "name": "lislet",
    "long": 4.01667,
    "lat": 49.6833
  },
  {
    "id": 701,
    "dep": 2,
    "name": "vendeuil",
    "long": 3.35,
    "lat": 49.7167
  },
  {
    "id": 702,
    "dep": 2,
    "name": "folembray",
    "long": 3.28333,
    "lat": 49.55
  },
  {
    "id": 703,
    "dep": 2,
    "name": "courbes",
    "long": 3.45,
    "lat": 49.6833
  },
  {
    "id": 704,
    "dep": 2,
    "name": "chacrise",
    "long": 3.4,
    "lat": 49.3
  },
  {
    "id": 705,
    "dep": 2,
    "name": "serches",
    "long": 3.45,
    "lat": 49.35
  },
  {
    "id": 706,
    "dep": 2,
    "name": "acy",
    "long": 3.41667,
    "lat": 49.35
  },
  {
    "id": 707,
    "dep": 2,
    "name": "verneuil sous coucy",
    "long": 3.31667,
    "lat": 49.5333
  },
  {
    "id": 708,
    "dep": 2,
    "name": "bazoches sur vesles",
    "long": 3.61861,
    "lat": 49.3073
  },
  {
    "id": 709,
    "dep": 2,
    "name": "mauregny en haye",
    "long": 3.8,
    "lat": 49.5333
  },
  {
    "id": 710,
    "dep": 2,
    "name": "hartennes et taux",
    "long": 3.35,
    "lat": 49.2667
  },
  {
    "id": 711,
    "dep": 2,
    "name": "vasseny",
    "long": 3.48333,
    "lat": 49.35
  },
  {
    "id": 712,
    "dep": 2,
    "name": "merval",
    "long": 3.7,
    "lat": 49.35
  },
  {
    "id": 713,
    "dep": 2,
    "name": "corcy",
    "long": 3.21667,
    "lat": 49.25
  },
  {
    "id": 714,
    "dep": 2,
    "name": "bony",
    "long": 3.21667,
    "lat": 49.9833
  },
  {
    "id": 715,
    "dep": 2,
    "name": "breny",
    "long": 3.35,
    "lat": 49.1833
  },
  {
    "id": 716,
    "dep": 2,
    "name": "brecy",
    "long": 3.43333,
    "lat": 49.15
  },
  {
    "id": 717,
    "dep": 2,
    "name": "bruyeres sur fere",
    "long": 3.43333,
    "lat": 49.1833
  },
  {
    "id": 718,
    "dep": 2,
    "name": "flavy le martel",
    "long": 3.2,
    "lat": 49.7167
  },
  {
    "id": 719,
    "dep": 2,
    "name": "pancy courtecon",
    "long": 3.65,
    "lat": 49.4667
  },
  {
    "id": 720,
    "dep": 2,
    "name": "bosmont sur serre",
    "long": 3.86667,
    "lat": 49.7333
  },
  {
    "id": 721,
    "dep": 2,
    "name": "missy aux bois",
    "long": 3.25,
    "lat": 49.3333
  },
  {
    "id": 722,
    "dep": 2,
    "name": "surfontaine",
    "long": 3.45,
    "lat": 49.7333
  },
  {
    "id": 723,
    "dep": 2,
    "name": "dagny lambercy",
    "long": 4.03333,
    "lat": 49.7667
  },
  {
    "id": 724,
    "dep": 2,
    "name": "lanchy",
    "long": 3.08333,
    "lat": 49.8333
  },
  {
    "id": 725,
    "dep": 2,
    "name": "vaudesson",
    "long": 3.48333,
    "lat": 49.4667
  },
  {
    "id": 726,
    "dep": 2,
    "name": "coeuvres et valsery",
    "long": 3.15,
    "lat": 49.3333
  },
  {
    "id": 727,
    "dep": 2,
    "name": "epieds",
    "long": 3.45,
    "lat": 49.1
  },
  {
    "id": 728,
    "dep": 2,
    "name": "villeneuve saint germain",
    "long": 3.35,
    "lat": 49.3833
  },
  {
    "id": 729,
    "dep": 2,
    "name": "alaincourt",
    "long": 3.36667,
    "lat": 49.75
  },
  {
    "id": 730,
    "dep": 2,
    "name": "soucy",
    "long": 3.13333,
    "lat": 49.3167
  },
  {
    "id": 731,
    "dep": 2,
    "name": "archon",
    "long": 4.11667,
    "lat": 49.7417
  },
  {
    "id": 732,
    "dep": 2,
    "name": "pargny filain",
    "long": 3.53333,
    "lat": 49.4667
  },
  {
    "id": 733,
    "dep": 2,
    "name": "germaine",
    "long": 3.11667,
    "lat": 49.7833
  },
  {
    "id": 734,
    "dep": 2,
    "name": "la neuville housset",
    "long": 3.71667,
    "lat": 49.7833
  },
  {
    "id": 735,
    "dep": 2,
    "name": "belleau",
    "long": 3.3,
    "lat": 49.1
  },
  {
    "id": 736,
    "dep": 2,
    "name": "paars",
    "long": 3.6,
    "lat": 49.3333
  },
  {
    "id": 737,
    "dep": 2,
    "name": "laniscourt",
    "long": 3.55,
    "lat": 49.55
  },
  {
    "id": 738,
    "dep": 2,
    "name": "sermoise",
    "long": 3.45,
    "lat": 49.3667
  },
  {
    "id": 739,
    "dep": 2,
    "name": "barenton bugny",
    "long": 3.65,
    "lat": 49.6333
  },
  {
    "id": 740,
    "dep": 2,
    "name": "quierzy",
    "long": 3.13333,
    "lat": 49.5667
  },
  {
    "id": 741,
    "dep": 2,
    "name": "cerizy",
    "long": 3.33333,
    "lat": 49.75
  },
  {
    "id": 742,
    "dep": 2,
    "name": "la ferte chevresis",
    "long": 3.56667,
    "lat": 49.7333
  },
  {
    "id": 743,
    "dep": 2,
    "name": "ramicourt",
    "long": 3.33333,
    "lat": 49.95
  },
  {
    "id": 744,
    "dep": 2,
    "name": "bussiares",
    "long": 3.25,
    "lat": 49.0833
  },
  {
    "id": 745,
    "dep": 2,
    "name": "bernot",
    "long": 3.5,
    "lat": 49.8667
  },
  {
    "id": 746,
    "dep": 2,
    "name": "lerzy",
    "long": 3.86667,
    "lat": 49.9333
  },
  {
    "id": 747,
    "dep": 2,
    "name": "samoussy",
    "long": 3.73333,
    "lat": 49.5833
  },
  {
    "id": 748,
    "dep": 2,
    "name": "grougis",
    "long": 3.53333,
    "lat": 49.9333
  },
  {
    "id": 749,
    "dep": 2,
    "name": "macquigny",
    "long": 3.55,
    "lat": 49.8833
  },
  {
    "id": 750,
    "dep": 2,
    "name": "la flamengrie",
    "long": 3.91667,
    "lat": 50
  },
  {
    "id": 751,
    "dep": 2,
    "name": "servais",
    "long": 3.35,
    "lat": 49.6167
  },
  {
    "id": 752,
    "dep": 2,
    "name": "bertricourt",
    "long": 4,
    "lat": 49.3833
  },
  {
    "id": 753,
    "dep": 2,
    "name": "osly courtil",
    "long": 3.21667,
    "lat": 49.4
  },
  {
    "id": 754,
    "dep": 2,
    "name": "verneuil sur serre",
    "long": 3.66667,
    "lat": 49.65
  },
  {
    "id": 755,
    "dep": 2,
    "name": "mayot",
    "long": 3.38333,
    "lat": 49.7
  },
  {
    "id": 756,
    "dep": 2,
    "name": "wassigny",
    "long": 3.6,
    "lat": 50.0167
  },
  {
    "id": 757,
    "dep": 2,
    "name": "barenton cel",
    "long": 3.63333,
    "lat": 49.65
  },
  {
    "id": 758,
    "dep": 2,
    "name": "englancourt",
    "long": 3.8,
    "lat": 49.9167
  },
  {
    "id": 759,
    "dep": 2,
    "name": "athies sous laon",
    "long": 3.68333,
    "lat": 49.5667
  },
  {
    "id": 760,
    "dep": 2,
    "name": "froidestrees",
    "long": 3.9,
    "lat": 49.9333
  },
  {
    "id": 761,
    "dep": 2,
    "name": "la malmaison",
    "long": 3.98333,
    "lat": 49.5167
  },
  {
    "id": 762,
    "dep": 2,
    "name": "manicamp",
    "long": 3.16667,
    "lat": 49.5667
  },
  {
    "id": 763,
    "dep": 2,
    "name": "barenton sur serre",
    "long": 3.68333,
    "lat": 49.6667
  },
  {
    "id": 764,
    "dep": 2,
    "name": "audigny",
    "long": 3.65,
    "lat": 49.85
  },
  {
    "id": 765,
    "dep": 2,
    "name": "ohis",
    "long": 4.01667,
    "lat": 49.9333
  },
  {
    "id": 766,
    "dep": 2,
    "name": "martigny",
    "long": 4.13333,
    "lat": 49.8667
  },
  {
    "id": 767,
    "dep": 2,
    "name": "barisis",
    "long": 3.32806,
    "lat": 49.5787
  },
  {
    "id": 768,
    "dep": 2,
    "name": "epaux bezu",
    "long": 3.35,
    "lat": 49.1
  },
  {
    "id": 769,
    "dep": 2,
    "name": "abbecourt",
    "long": 3.18333,
    "lat": 49.6
  },
  {
    "id": 770,
    "dep": 2,
    "name": "hauteville",
    "long": 3.51667,
    "lat": 49.8667
  },
  {
    "id": 771,
    "dep": 2,
    "name": "benay",
    "long": 3.31667,
    "lat": 49.75
  },
  {
    "id": 772,
    "dep": 2,
    "name": "la neuville en beine",
    "long": 3.15,
    "lat": 49.6833
  },
  {
    "id": 773,
    "dep": 2,
    "name": "tupigny",
    "long": 3.6,
    "lat": 49.95
  },
  {
    "id": 774,
    "dep": 2,
    "name": "vervins",
    "long": 3.9,
    "lat": 49.8333
  },
  {
    "id": 775,
    "dep": 2,
    "name": "dorengt",
    "long": 3.68333,
    "lat": 49.9667
  },
  {
    "id": 776,
    "dep": 2,
    "name": "saint gobert",
    "long": 3.81667,
    "lat": 49.8
  },
  {
    "id": 777,
    "dep": 2,
    "name": "parcy et tigny",
    "long": 3.335,
    "lat": 49.2787
  },
  {
    "id": 778,
    "dep": 2,
    "name": "saint pierre les franqueville",
    "long": 3.82361,
    "lat": 49.8195
  },
  {
    "id": 779,
    "dep": 2,
    "name": "mont notre dame",
    "long": 3.58333,
    "lat": 49.3
  },
  {
    "id": 780,
    "dep": 2,
    "name": "mont saint martin",
    "long": 3.63333,
    "lat": 49.2833
  },
  {
    "id": 781,
    "dep": 2,
    "name": "chierry",
    "long": 3.43333,
    "lat": 49.0333
  },
  {
    "id": 782,
    "dep": 2,
    "name": "cutry",
    "long": 3.18333,
    "lat": 49.35
  },
  {
    "id": 783,
    "dep": 2,
    "name": "chevennes",
    "long": 3.73333,
    "lat": 49.8167
  },
  {
    "id": 784,
    "dep": 2,
    "name": "montigny le franc",
    "long": 3.91667,
    "lat": 49.6833
  },
  {
    "id": 785,
    "dep": 2,
    "name": "bourg et comin",
    "long": 3.65,
    "lat": 49.4
  },
  {
    "id": 786,
    "dep": 2,
    "name": "saint agnan",
    "long": 3.6,
    "lat": 49.0167
  },
  {
    "id": 787,
    "dep": 2,
    "name": "coulonges cohan",
    "long": 3.63639,
    "lat": 49.2012
  },
  {
    "id": 788,
    "dep": 2,
    "name": "premontre",
    "long": 3.4,
    "lat": 49.55
  },
  {
    "id": 789,
    "dep": 2,
    "name": "courtrizy et fussigny",
    "long": 3.8,
    "lat": 49.5167
  },
  {
    "id": 790,
    "dep": 2,
    "name": "jumencourt",
    "long": 3.35,
    "lat": 49.5167
  },
  {
    "id": 791,
    "dep": 2,
    "name": "clairfontaine",
    "long": 3.98333,
    "lat": 49.9833
  },
  {
    "id": 792,
    "dep": 2,
    "name": "sequehart",
    "long": 3.33333,
    "lat": 49.9167
  },
  {
    "id": 793,
    "dep": 2,
    "name": "agnicourt et sechelles",
    "long": 3.95,
    "lat": 49.7167
  },
  {
    "id": 794,
    "dep": 2,
    "name": "roucy",
    "long": 3.81667,
    "lat": 49.3667
  },
  {
    "id": 795,
    "dep": 2,
    "name": "premont",
    "long": 3.38333,
    "lat": 50
  },
  {
    "id": 796,
    "dep": 2,
    "name": "clastres",
    "long": 3.23333,
    "lat": 49.7333
  },
  {
    "id": 797,
    "dep": 2,
    "name": "le charmel",
    "long": 3.55,
    "lat": 49.1167
  },
  {
    "id": 798,
    "dep": 2,
    "name": "allemant",
    "long": 3.45,
    "lat": 49.4667
  },
  {
    "id": 799,
    "dep": 2,
    "name": "mont saint pere",
    "long": 3.48333,
    "lat": 49.0667
  },
  {
    "id": 800,
    "dep": 2,
    "name": "parfondeval",
    "long": 4.16667,
    "lat": 49.7333
  },
  {
    "id": 801,
    "dep": 2,
    "name": "chivres val",
    "long": 3.43333,
    "lat": 49.4
  },
  {
    "id": 802,
    "dep": 2,
    "name": "aubencheul aux bois",
    "long": 3.26667,
    "lat": 50.0333
  },
  {
    "id": 803,
    "dep": 2,
    "name": "montfaucon",
    "long": 3.45,
    "lat": 48.95
  },
  {
    "id": 804,
    "dep": 2,
    "name": "les autels",
    "long": 4.2257,
    "lat": 49.7667
  },
  {
    "id": 805,
    "dep": 2,
    "name": "fontenoy",
    "long": 3.2,
    "lat": 49.4167
  },
  {
    "id": 806,
    "dep": 2,
    "name": "crecy au mont",
    "long": 3.31667,
    "lat": 49.4833
  },
  {
    "id": 807,
    "dep": 2,
    "name": "morcourt",
    "long": 3.31667,
    "lat": 49.8667
  },
  {
    "id": 808,
    "dep": 2,
    "name": "neuville sur margival",
    "long": 3.4,
    "lat": 49.45
  },
  {
    "id": 809,
    "dep": 2,
    "name": "cys la commune",
    "long": 3.56667,
    "lat": 49.4
  },
  {
    "id": 810,
    "dep": 2,
    "name": "marizy saint mard",
    "long": 3.21667,
    "lat": 49.1833
  },
  {
    "id": 811,
    "dep": 2,
    "name": "villeret",
    "long": 3.18333,
    "lat": 49.95
  },
  {
    "id": 812,
    "dep": 2,
    "name": "amifontaine",
    "long": 3.91667,
    "lat": 49.4833
  },
  {
    "id": 813,
    "dep": 2,
    "name": "fontaine uterte",
    "long": 3.36667,
    "lat": 49.9167
  },
  {
    "id": 814,
    "dep": 2,
    "name": "dolignon",
    "long": 4.08333,
    "lat": 49.7167
  },
  {
    "id": 815,
    "dep": 2,
    "name": "etaves et bocquiaux",
    "long": 3.45,
    "lat": 49.9333
  },
  {
    "id": 816,
    "dep": 2,
    "name": "rocquigny",
    "long": 3.98333,
    "lat": 50.0333
  },
  {
    "id": 817,
    "dep": 2,
    "name": "mortiers",
    "long": 3.66667,
    "lat": 49.6833
  },
  {
    "id": 818,
    "dep": 2,
    "name": "rozoy sur serre",
    "long": 4.13333,
    "lat": 49.7167
  },
  {
    "id": 819,
    "dep": 2,
    "name": "malzy",
    "long": 3.73333,
    "lat": 49.9
  },
  {
    "id": 820,
    "dep": 2,
    "name": "bellenglise",
    "long": 3.25,
    "lat": 49.9167
  },
  {
    "id": 821,
    "dep": 2,
    "name": "cerny en laonnois",
    "long": 3.66667,
    "lat": 49.45
  },
  {
    "id": 822,
    "dep": 2,
    "name": "montloue",
    "long": 4.06667,
    "lat": 49.6667
  },
  {
    "id": 823,
    "dep": 2,
    "name": "sainte genevieve",
    "long": 4.07139,
    "lat": 49.7195
  },
  {
    "id": 824,
    "dep": 2,
    "name": "neuve maison",
    "long": 4.03333,
    "lat": 49.9333
  },
  {
    "id": 825,
    "dep": 2,
    "name": "bezu saint germain",
    "long": 3.4,
    "lat": 49.1
  },
  {
    "id": 826,
    "dep": 2,
    "name": "etreaupont",
    "long": 3.91667,
    "lat": 49.9
  },
  {
    "id": 827,
    "dep": 2,
    "name": "berthenicourt",
    "long": 3.38333,
    "lat": 49.7667
  },
  {
    "id": 828,
    "dep": 2,
    "name": "thiernu",
    "long": 3.8,
    "lat": 49.75
  },
  {
    "id": 829,
    "dep": 2,
    "name": "laigny",
    "long": 3.86667,
    "lat": 49.85
  },
  {
    "id": 830,
    "dep": 2,
    "name": "aisonville et bernoville",
    "long": 3.53333,
    "lat": 49.9333
  },
  {
    "id": 831,
    "dep": 2,
    "name": "crouy",
    "long": 3.36667,
    "lat": 49.4
  },
  {
    "id": 832,
    "dep": 2,
    "name": "hirson",
    "long": 4.08333,
    "lat": 49.9167
  },
  {
    "id": 833,
    "dep": 2,
    "name": "bagneux",
    "long": 3.28333,
    "lat": 49.4667
  },
  {
    "id": 834,
    "dep": 2,
    "name": "autremencourt",
    "long": 3.8,
    "lat": 49.7
  },
  {
    "id": 835,
    "dep": 2,
    "name": "la celle sous montmirail",
    "long": 3.46611,
    "lat": 48.8648
  },
  {
    "id": 836,
    "dep": 2,
    "name": "conde sur aisne",
    "long": 3.45,
    "lat": 49.4
  },
  {
    "id": 837,
    "dep": 2,
    "name": "blerancourt",
    "long": 3.15,
    "lat": 49.5167
  },
  {
    "id": 838,
    "dep": 2,
    "name": "monthurel",
    "long": 3.55,
    "lat": 49.0167
  },
  {
    "id": 839,
    "dep": 2,
    "name": "petit verly",
    "long": 3.55,
    "lat": 49.9667
  },
  {
    "id": 840,
    "dep": 2,
    "name": "soize",
    "long": 4.08333,
    "lat": 49.7
  },
  {
    "id": 841,
    "dep": 2,
    "name": "saconin et breuil",
    "long": 3.25,
    "lat": 49.3667
  },
  {
    "id": 842,
    "dep": 2,
    "name": "largny sur automne",
    "long": 3.05,
    "lat": 49.2667
  },
  {
    "id": 843,
    "dep": 2,
    "name": "sommeron",
    "long": 3.95,
    "lat": 49.95
  },
  {
    "id": 844,
    "dep": 2,
    "name": "veslud",
    "long": 3.73333,
    "lat": 49.5333
  },
  {
    "id": 845,
    "dep": 2,
    "name": "liesse notre dame",
    "long": 3.80445,
    "lat": 49.6095
  },
  {
    "id": 846,
    "dep": 2,
    "name": "chaudun",
    "long": 3.26667,
    "lat": 49.3167
  },
  {
    "id": 847,
    "dep": 2,
    "name": "vuillery",
    "long": 3.38333,
    "lat": 49.4333
  },
  {
    "id": 848,
    "dep": 2,
    "name": "omissy",
    "long": 3.31667,
    "lat": 49.8833
  },
  {
    "id": 849,
    "dep": 2,
    "name": "pavant",
    "long": 3.28333,
    "lat": 48.95
  },
  {
    "id": 850,
    "dep": 2,
    "name": "missy sur aisne",
    "long": 3.43333,
    "lat": 49.3833
  },
  {
    "id": 851,
    "dep": 2,
    "name": "cugny",
    "long": 3.15,
    "lat": 49.7
  },
  {
    "id": 852,
    "dep": 2,
    "name": "parfondru",
    "long": 3.71667,
    "lat": 49.5333
  },
  {
    "id": 853,
    "dep": 2,
    "name": "coingt",
    "long": 4.08333,
    "lat": 49.7833
  },
  {
    "id": 854,
    "dep": 2,
    "name": "fonsomme",
    "long": 3.4,
    "lat": 49.9
  },
  {
    "id": 855,
    "dep": 2,
    "name": "dury",
    "long": 3.12889,
    "lat": 49.7506
  },
  {
    "id": 856,
    "dep": 2,
    "name": "royaucourt et chailvet",
    "long": 3.53333,
    "lat": 49.5167
  },
  {
    "id": 857,
    "dep": 2,
    "name": "landricourt",
    "long": 3.36667,
    "lat": 49.5
  },
  {
    "id": 858,
    "dep": 2,
    "name": "sissonne",
    "long": 3.9,
    "lat": 49.5667
  },
  {
    "id": 859,
    "dep": 2,
    "name": "berlise",
    "long": 4.11667,
    "lat": 49.6667
  },
  {
    "id": 860,
    "dep": 2,
    "name": "ribemont",
    "long": 3.46667,
    "lat": 49.8
  },
  {
    "id": 861,
    "dep": 2,
    "name": "sains richaumont",
    "long": 3.7,
    "lat": 49.8167
  },
  {
    "id": 862,
    "dep": 2,
    "name": "filain",
    "long": 3.55,
    "lat": 49.4667
  },
  {
    "id": 863,
    "dep": 2,
    "name": "chevregny",
    "long": 3.58333,
    "lat": 49.4667
  },
  {
    "id": 864,
    "dep": 2,
    "name": "montchalons",
    "long": 3.73333,
    "lat": 49.5167
  },
  {
    "id": 865,
    "dep": 2,
    "name": "brumetz",
    "long": 3.15,
    "lat": 49.1
  },
  {
    "id": 866,
    "dep": 2,
    "name": "taillefontaine",
    "long": 3.03333,
    "lat": 49.3167
  },
  {
    "id": 867,
    "dep": 2,
    "name": "guny",
    "long": 3.26667,
    "lat": 49.5167
  },
  {
    "id": 868,
    "dep": 2,
    "name": "fresnoy le grand",
    "long": 3.41667,
    "lat": 49.95
  },
  {
    "id": 869,
    "dep": 2,
    "name": "nouvron vingre",
    "long": 3.2,
    "lat": 49.4333
  },
  {
    "id": 870,
    "dep": 2,
    "name": "magny la fosse",
    "long": 3.28333,
    "lat": 49.9333
  },
  {
    "id": 871,
    "dep": 2,
    "name": "cuisy en almont",
    "long": 3.25,
    "lat": 49.4167
  },
  {
    "id": 872,
    "dep": 2,
    "name": "montbavin",
    "long": 3.51667,
    "lat": 49.5333
  },
  {
    "id": 873,
    "dep": 2,
    "name": "vorges",
    "long": 3.65,
    "lat": 49.5167
  },
  {
    "id": 874,
    "dep": 2,
    "name": "montescourt lizerolles",
    "long": 3.2575,
    "lat": 49.7387
  },
  {
    "id": 875,
    "dep": 2,
    "name": "pont arcy",
    "long": 3.61667,
    "lat": 49.3833
  },
  {
    "id": 876,
    "dep": 2,
    "name": "grugies",
    "long": 3.26667,
    "lat": 49.8
  },
  {
    "id": 877,
    "dep": 2,
    "name": "bieuxy",
    "long": 3.26667,
    "lat": 49.45
  },
  {
    "id": 878,
    "dep": 2,
    "name": "marcy",
    "long": 3.4,
    "lat": 49.8333
  },
  {
    "id": 879,
    "dep": 2,
    "name": "braine",
    "long": 3.53333,
    "lat": 49.3333
  },
  {
    "id": 880,
    "dep": 2,
    "name": "orgeval",
    "long": 3.7,
    "lat": 49.5167
  },
  {
    "id": 881,
    "dep": 2,
    "name": "marest dampcourt",
    "long": 3.15,
    "lat": 49.6
  },
  {
    "id": 882,
    "dep": 2,
    "name": "cilly",
    "long": 3.83333,
    "lat": 49.7333
  },
  {
    "id": 883,
    "dep": 2,
    "name": "harly",
    "long": 3.31667,
    "lat": 49.8333
  },
  {
    "id": 884,
    "dep": 2,
    "name": "rouvroy",
    "long": 3.31667,
    "lat": 49.85
  },
  {
    "id": 885,
    "dep": 2,
    "name": "romeny sur marne",
    "long": 3.33333,
    "lat": 48.9833
  },
  {
    "id": 886,
    "dep": 2,
    "name": "douchy",
    "long": 3.11667,
    "lat": 49.7667
  },
  {
    "id": 887,
    "dep": 2,
    "name": "vauxtin",
    "long": 3.6,
    "lat": 49.35
  },
  {
    "id": 888,
    "dep": 2,
    "name": "rogecourt",
    "long": 3.41667,
    "lat": 49.6333
  },
  {
    "id": 889,
    "dep": 2,
    "name": "montigny lengrain",
    "long": 3.1,
    "lat": 49.3667
  },
  {
    "id": 890,
    "dep": 2,
    "name": "houry",
    "long": 3.85,
    "lat": 49.7833
  },
  {
    "id": 891,
    "dep": 2,
    "name": "pierrepont",
    "long": 3.78333,
    "lat": 49.65
  },
  {
    "id": 892,
    "dep": 2,
    "name": "dohis",
    "long": 4.13333,
    "lat": 49.75
  },
  {
    "id": 893,
    "dep": 2,
    "name": "brasles",
    "long": 3.43333,
    "lat": 49.05
  },
  {
    "id": 894,
    "dep": 2,
    "name": "aubigny en laonnois",
    "long": 3.8,
    "lat": 49.5
  },
  {
    "id": 895,
    "dep": 2,
    "name": "paissy",
    "long": 3.7,
    "lat": 49.4167
  },
  {
    "id": 896,
    "dep": 2,
    "name": "nouvion le comte",
    "long": 3.46667,
    "lat": 49.6833
  },
  {
    "id": 897,
    "dep": 2,
    "name": "monceau le neuf et faucouzy",
    "long": 3.61584,
    "lat": 49.7698
  },
  {
    "id": 898,
    "dep": 2,
    "name": "raillimont",
    "long": 4.15,
    "lat": 49.7083
  },
  {
    "id": 899,
    "dep": 2,
    "name": "dammard",
    "long": 3.2,
    "lat": 49.15
  },
  {
    "id": 900,
    "dep": 2,
    "name": "passy sur marne",
    "long": 3.56667,
    "lat": 49.0667
  },
  {
    "id": 901,
    "dep": 2,
    "name": "lempire",
    "long": 3.16667,
    "lat": 49.9833
  },
  {
    "id": 902,
    "dep": 2,
    "name": "cuiry les chaudardes",
    "long": 3.76667,
    "lat": 49.3833
  },
  {
    "id": 903,
    "dep": 2,
    "name": "housset",
    "long": 3.7,
    "lat": 49.7833
  },
  {
    "id": 904,
    "dep": 2,
    "name": "billy sur aisne",
    "long": 3.38333,
    "lat": 49.3667
  },
  {
    "id": 905,
    "dep": 2,
    "name": "belleu",
    "long": 3.33333,
    "lat": 49.3667
  },
  {
    "id": 906,
    "dep": 2,
    "name": "pontavert",
    "long": 3.81667,
    "lat": 49.4167
  },
  {
    "id": 907,
    "dep": 2,
    "name": "dizy le gros",
    "long": 4.01667,
    "lat": 49.6333
  },
  {
    "id": 908,
    "dep": 2,
    "name": "crouttes sur marne",
    "long": 3.24,
    "lat": 48.98
  },
  {
    "id": 909,
    "dep": 2,
    "name": "courmelles",
    "long": 3.31667,
    "lat": 49.35
  },
  {
    "id": 910,
    "dep": 2,
    "name": "bichancourt",
    "long": 3.21667,
    "lat": 49.5833
  },
  {
    "id": 911,
    "dep": 2,
    "name": "beauvois en vermandois",
    "long": 3.1,
    "lat": 49.8167
  },
  {
    "id": 912,
    "dep": 2,
    "name": "priez",
    "long": 3.26667,
    "lat": 49.1333
  },
  {
    "id": 913,
    "dep": 2,
    "name": "chassemy",
    "long": 3.5,
    "lat": 49.3833
  },
  {
    "id": 914,
    "dep": 2,
    "name": "etrepilly",
    "long": 3.33333,
    "lat": 49.0833
  },
  {
    "id": 915,
    "dep": 2,
    "name": "artemps",
    "long": 3.18333,
    "lat": 49.7667
  },
  {
    "id": 916,
    "dep": 2,
    "name": "frieres faillouel",
    "long": 3.25,
    "lat": 49.6667
  },
  {
    "id": 917,
    "dep": 2,
    "name": "wiege faty",
    "long": 3.73333,
    "lat": 49.8833
  },
  {
    "id": 918,
    "dep": 2,
    "name": "saint nicolas aux bois",
    "long": 3.41667,
    "lat": 49.6
  },
  {
    "id": 919,
    "dep": 2,
    "name": "gricourt",
    "long": 3.25,
    "lat": 49.8833
  },
  {
    "id": 920,
    "dep": 2,
    "name": "blesmes",
    "long": 3.45,
    "lat": 49.0333
  },
  {
    "id": 921,
    "dep": 2,
    "name": "ville savoye",
    "long": 3.63333,
    "lat": 49.3
  },
  {
    "id": 922,
    "dep": 2,
    "name": "mercin et vaux",
    "long": 3.28333,
    "lat": 49.3833
  },
  {
    "id": 923,
    "dep": 2,
    "name": "chevresis monceau",
    "long": 3.56667,
    "lat": 49.75
  },
  {
    "id": 924,
    "dep": 2,
    "name": "beaurevoir",
    "long": 3.3,
    "lat": 50
  },
  {
    "id": 925,
    "dep": 2,
    "name": "saint bandry",
    "long": 3.16667,
    "lat": 49.3667
  },
  {
    "id": 926,
    "dep": 2,
    "name": "vregny",
    "long": 3.41667,
    "lat": 49.4167
  },
  {
    "id": 927,
    "dep": 2,
    "name": "vadencourt",
    "long": 3.58333,
    "lat": 49.9333
  },
  {
    "id": 928,
    "dep": 2,
    "name": "vierzy",
    "long": 3.28333,
    "lat": 49.2833
  },
  {
    "id": 929,
    "dep": 2,
    "name": "caillouel crepigny",
    "long": 3.15,
    "lat": 49.6167
  },
  {
    "id": 930,
    "dep": 2,
    "name": "nizy le comte",
    "long": 4.05,
    "lat": 49.5667
  },
  {
    "id": 931,
    "dep": 2,
    "name": "vendieres",
    "long": 3.45,
    "lat": 48.8667
  },
  {
    "id": 932,
    "dep": 2,
    "name": "buzancy",
    "long": 3.35,
    "lat": 49.3167
  },
  {
    "id": 933,
    "dep": 2,
    "name": "jeantes",
    "long": 4.05,
    "lat": 49.8
  },
  {
    "id": 934,
    "dep": 2,
    "name": "connigis",
    "long": 3.53333,
    "lat": 49.0333
  },
  {
    "id": 935,
    "dep": 2,
    "name": "torcy en valois",
    "long": 3.26667,
    "lat": 49.0833
  },
  {
    "id": 936,
    "dep": 2,
    "name": "coucy la ville",
    "long": 3.33333,
    "lat": 49.5333
  },
  {
    "id": 937,
    "dep": 2,
    "name": "goudelancourt les pierrepont",
    "long": 3.85473,
    "lat": 49.6689
  },
  {
    "id": 938,
    "dep": 2,
    "name": "passy en valois",
    "long": 3.2,
    "lat": 49.1667
  },
  {
    "id": 939,
    "dep": 2,
    "name": "montgru saint hilaire",
    "long": 3.33333,
    "lat": 49.1833
  },
  {
    "id": 940,
    "dep": 2,
    "name": "mont d origny",
    "long": 3.48333,
    "lat": 49.8333
  },
  {
    "id": 941,
    "dep": 2,
    "name": "vassogne",
    "long": 3.73333,
    "lat": 49.4167
  },
  {
    "id": 942,
    "dep": 2,
    "name": "maissemy",
    "long": 3.2,
    "lat": 49.8833
  },
  {
    "id": 943,
    "dep": 2,
    "name": "rogny",
    "long": 3.81667,
    "lat": 49.7667
  },
  {
    "id": 944,
    "dep": 2,
    "name": "venerolles",
    "long": 3.63333,
    "lat": 49.9667
  },
  {
    "id": 945,
    "dep": 2,
    "name": "clamecy",
    "long": 3.36667,
    "lat": 49.4333
  },
  {
    "id": 946,
    "dep": 2,
    "name": "viel arcy",
    "long": 3.61667,
    "lat": 49.3833
  },
  {
    "id": 947,
    "dep": 2,
    "name": "guyencourt",
    "long": 3.83333,
    "lat": 49.35
  },
  {
    "id": 948,
    "dep": 2,
    "name": "mennevret",
    "long": 3.55,
    "lat": 49.9833
  },
  {
    "id": 949,
    "dep": 2,
    "name": "caulaincourt",
    "long": 3.1,
    "lat": 49.8667
  },
  {
    "id": 950,
    "dep": 2,
    "name": "oulchy le chateau",
    "long": 3.35,
    "lat": 49.2
  },
  {
    "id": 951,
    "dep": 2,
    "name": "guise",
    "long": 3.63333,
    "lat": 49.9
  },
  {
    "id": 952,
    "dep": 2,
    "name": "champs",
    "long": 3.25,
    "lat": 49.5333
  },
  {
    "id": 953,
    "dep": 2,
    "name": "sainte preuve",
    "long": 3.91667,
    "lat": 49.6167
  },
  {
    "id": 954,
    "dep": 2,
    "name": "proix",
    "long": 3.56667,
    "lat": 49.9
  },
  {
    "id": 955,
    "dep": 2,
    "name": "ambleny",
    "long": 3.18333,
    "lat": 49.3833
  },
  {
    "id": 956,
    "dep": 2,
    "name": "ribeauville",
    "long": 3.58333,
    "lat": 50.05
  },
  {
    "id": 957,
    "dep": 2,
    "name": "tugny et pont",
    "long": 3.15,
    "lat": 49.75
  },
  {
    "id": 958,
    "dep": 2,
    "name": "fresnes",
    "long": 3.36973,
    "lat": 49.5539
  },
  {
    "id": 959,
    "dep": 2,
    "name": "bourguignon sous montbavin",
    "long": 3.54139,
    "lat": 49.5281
  },
  {
    "id": 960,
    "dep": 2,
    "name": "neuvillette",
    "long": 3.46667,
    "lat": 49.85
  },
  {
    "id": 961,
    "dep": 2,
    "name": "saint thomas",
    "long": 3.81667,
    "lat": 49.5
  },
  {
    "id": 962,
    "dep": 2,
    "name": "marfontaine",
    "long": 3.78333,
    "lat": 49.8
  },
  {
    "id": 963,
    "dep": 2,
    "name": "besmont",
    "long": 4.11667,
    "lat": 49.8333
  },
  {
    "id": 964,
    "dep": 2,
    "name": "lehaucourt",
    "long": 3.28333,
    "lat": 49.9167
  },
  {
    "id": 965,
    "dep": 2,
    "name": "brissy hamegicourt",
    "long": 3.38028,
    "lat": 49.7437
  },
  {
    "id": 966,
    "dep": 2,
    "name": "plomion",
    "long": 4.01667,
    "lat": 49.8
  },
  {
    "id": 967,
    "dep": 2,
    "name": "savy",
    "long": 3.18333,
    "lat": 49.8
  },
  {
    "id": 968,
    "dep": 2,
    "name": "puisieux et clanlieu",
    "long": 3.66667,
    "lat": 49.85
  },